STATION_NUMBER,STATION_NAME,PROV_TERR_STATE_LOC,HYD_STATUS,REAL_TIME,LATITUDE,LONGITUDE,station_tz,standard_offset,OlsonName
01AD003,ST. FRANCIS RIVER AT OUTLET OF GLASIER LAKE,NB,ACTIVE,TRUE,47.20661,-68.95694,America/Moncton,-4,Etc/GMT+4
01AD004,SAINT JOHN RIVER AT EDMUNDSTON,NB,ACTIVE,TRUE,47.36078,-68.32489,America/Moncton,-4,Etc/GMT+4
01AF002,SAINT JOHN RIVER AT GRAND FALLS,NB,ACTIVE,TRUE,47.03889,-67.73972,America/Moncton,-4,Etc/GMT+4
01AF007,GRANDE RIVIERE AT VIOLETTE BRIDGE,NB,ACTIVE,TRUE,47.24697,-67.92128,America/Moncton,-4,Etc/GMT+4
01AF009,IROQUOIS RIVER AT MOULIN MORNEAULT,NB,ACTIVE,TRUE,47.45783,-68.35683,America/Moncton,-4,Etc/GMT+4
01AG003,AROOSTOOK RIVER NEAR TINKER,NB,ACTIVE,TRUE,46.81636,-67.75197,America/Moncton,-4,Etc/GMT+4
01AH002,TOBIQUE RIVER AT RILEY BROOK,NB,ACTIVE,TRUE,47.17303,-67.21081,America/Moncton,-4,Etc/GMT+4
01AJ003,MEDUXNEKEAG RIVER NEAR BELLEVILLE,NB,ACTIVE,TRUE,46.21622,-67.72794,America/Moncton,-4,Etc/GMT+4
01AJ004,BIG PRESQUE ISLE STREAM AT TRACEY MILLS,NB,ACTIVE,TRUE,46.43836,-67.73844,America/Moncton,-4,Etc/GMT+4
01AJ010,BECAGUIMEC STREAM AT COLDSTREAM,NB,ACTIVE,TRUE,46.34089,-67.46511,America/Moncton,-4,Etc/GMT+4
01AK001,SHOGOMOC STREAM NEAR TRANS CANADA HIGHWAY,NB,ACTIVE,TRUE,45.94353,-67.32036,America/Moncton,-4,Etc/GMT+4
01AK003,SAINT JOHN RIVER AT FREDERICTON,NB,ACTIVE,TRUE,45.96619,-66.65161,America/Moncton,-4,Etc/GMT+4
01AK006,MIDDLE BRANCH NASHWAAKSIS STREAM AT SANDWITH'S FARM,NB,ACTIVE,TRUE,46.08281,-66.73303,America/Moncton,-4,Etc/GMT+4
01AK007,NACKAWIC STREAM NEAR TEMPERANCE VALE,NB,ACTIVE,TRUE,46.04878,-67.23961,America/Moncton,-4,Etc/GMT+4
01AL002,NASHWAAK RIVER AT DURHAM BRIDGE,NB,ACTIVE,TRUE,46.12592,-66.61131,America/Moncton,-4,Etc/GMT+4
01AL004,NARROWS MOUNTAIN BROOK NEAR NARROWS MOUNTAIN,NB,ACTIVE,TRUE,46.27717,-67.02139,America/Moncton,-4,Etc/GMT+4
01AM001,NORTH BRANCH OROMOCTO RIVER AT TRACY,NB,ACTIVE,TRUE,45.67378,-66.68289,America/Moncton,-4,Etc/GMT+4
01AN002,SALMON RIVER AT CASTAWAY,NB,ACTIVE,TRUE,46.29072,-65.72275,America/Moncton,-4,Etc/GMT+4
01AO002,SAINT JOHN RIVER AT MAUGERVILLE,NB,ACTIVE,TRUE,45.86647,-66.45317,America/Moncton,-4,Etc/GMT+4
01AO003,GRAND LAKE AT NEWCASTLE CREEK,NB,ACTIVE,TRUE,46.0564,-66.0057,America/Moncton,-4,Etc/GMT+4
01AO004,JEMSEG RIVER AT JEMSEG,NB,ACTIVE,TRUE,45.82892,-66.11542,America/Moncton,-4,Etc/GMT+4
01AO010,FRENCH LAKE AT LAKEVILLE CORNER,NB,ACTIVE,TRUE,45.90883,-66.25644,America/Moncton,-4,Etc/GMT+4
01AO011,SAINT JOHN RIVER AT UPPER GAGETOWN,NB,ACTIVE,TRUE,45.84725,-66.23486,America/Moncton,-4,Etc/GMT+4
01AO012,SAINT JOHN RIVER AT GAGETOWN,NB,ACTIVE,TRUE,45.76867,-66.14036,America/Moncton,-4,Etc/GMT+4
01AP002,CANAAN RIVER AT EAST CANAAN,NB,ACTIVE,TRUE,46.07236,-65.36639,America/Moncton,-4,Etc/GMT+4
01AP003,SAINT JOHN RIVER AT OAK POINT,NB,ACTIVE,TRUE,45.51942,-66.07661,America/Moncton,-4,Etc/GMT+4
01AP004,KENNEBECASIS RIVER AT APOHAQUI,NB,ACTIVE,TRUE,45.70139,-65.60169,America/Moncton,-4,Etc/GMT+4
01AP005,SAINT JOHN RIVER AT SAINT JOHN,NB,ACTIVE,TRUE,45.27339,-66.08889,America/Moncton,-4,Etc/GMT+4
01AP006,NEREPIS RIVER NEAR FOWLERS CORNER,NB,ACTIVE,TRUE,45.50344,-66.31897,America/Moncton,-4,Etc/GMT+4
01AQ001,LEPREAU RIVER AT LEPREAU,NB,ACTIVE,TRUE,45.16978,-66.46828,America/Moncton,-4,Etc/GMT+4
01AQ002,MAGAGUADAVIC RIVER AT ELMCROFT,NB,ACTIVE,TRUE,45.27333,-66.80667,America/Moncton,-4,Etc/GMT+4
01AQ007,MAGAGUADAVIC LAKE NEAR UPPER MAGAGUADAVIC,NB,ACTIVE,TRUE,45.71975,-67.18356,America/Moncton,-4,Etc/GMT+4
01AR006,DENNIS STREAM NEAR ST. STEPHEN,NB,ACTIVE,TRUE,45.20972,-67.2625,America/Moncton,-4,Etc/GMT+4
01AR009,GRAND LAKE AT FOREST CITY,NB,ACTIVE,TRUE,45.66489,-67.73589,America/New_York,-5,Etc/GMT+5
01AR010,SPEDNIC LAKE AT ST. CROIX,NB,ACTIVE,TRUE,45.56922,-67.42725,America/Moncton,-4,Etc/GMT+4
01AR011,FOREST CITY STREAM BELOW FOREST CITY DAM,NB,ACTIVE,TRUE,45.66417,-67.73356,America/New_York,-5,Etc/GMT+5
01AR013,GRAND FALLS FLOWAGE AT GRAND FALLS,NB,ACTIVE,TRUE,45.2745,-67.49636,America/New_York,-5,Etc/GMT+5
01AR014,ST. CROIX RIVER AT MILLTOWN DAM,NB,ACTIVE,TRUE,45.17522,-67.2929,America/Moncton,-4,Etc/GMT+4
01BC001,RESTIGOUCHE RIVER BELOW KEDGWICK RIVER,NB,ACTIVE,TRUE,47.66708,-67.48308,America/Moncton,-4,Etc/GMT+4
01BE001,UPSALQUITCH RIVER AT UPSALQUITCH,NB,ACTIVE,TRUE,47.83247,-66.88708,America/Moncton,-4,Etc/GMT+4
01BJ003,JACQUET RIVER NEAR DURHAM CENTRE,NB,ACTIVE,TRUE,47.89381,-66.02522,America/Moncton,-4,Etc/GMT+4
01BJ007,RESTIGOUCHE RIVER ABOVE RAFTING GROUND BROOK,NB,ACTIVE,TRUE,47.90867,-66.94806,America/Moncton,-4,Etc/GMT+4
01BJ010,MIDDLE RIVER NEAR BATHURST,NB,ACTIVE,TRUE,47.60839,-65.72181,America/Moncton,-4,Etc/GMT+4
01BJ012,EEL RIVER NEAR DUNDEE,NB,ACTIVE,TRUE,47.98789,-66.49061,America/Moncton,-4,Etc/GMT+4
01BL002,RIVIERE CARAQUET AT BURNSVILLE,NB,ACTIVE,TRUE,47.70561,-65.15539,America/Moncton,-4,Etc/GMT+4
01BL003,BIG TRACADIE RIVER AT MURCHY BRIDGE CROSSING,NB,ACTIVE,TRUE,47.43578,-65.10606,America/Moncton,-4,Etc/GMT+4
01BP001,LITTLE SOUTHWEST MIRAMICHI RIVER AT LYTTLETON,NB,ACTIVE,TRUE,46.93597,-65.90739,America/Moncton,-4,Etc/GMT+4
01BP002,CATAMARAN BROOK AT REPAP ROAD BRIDGE,NB,ACTIVE,TRUE,46.85656,-66.19011,America/Moncton,-4,Etc/GMT+4
01BQ001,NORTHWEST MIRAMICHI RIVER AT TROUT BROOK,NB,ACTIVE,TRUE,47.09475,-65.8365,America/Moncton,-4,Etc/GMT+4
01BS001,COAL BRANCH RIVER AT BEERSVILLE,NB,ACTIVE,TRUE,46.44394,-65.064940000000007,America/Moncton,-4,Etc/GMT+4
01BU002,PETITCODIAC RIVER NEAR PETITCODIAC,NB,ACTIVE,TRUE,45.94639,-65.16819,America/Moncton,-4,Etc/GMT+4
01BU009,HOLMES BROOK SITE NO. 9 NEAR PETITCODIAC,NB,ACTIVE,TRUE,45.88786,-65.14678,America/Moncton,-4,Etc/GMT+4
01BV006,POINT WOLFE RIVER AT FUNDY NATIONAL PARK,NB,ACTIVE,TRUE,45.55856,-65.01597,America/Moncton,-4,Etc/GMT+4
01CA003,CARRUTHERS BROOK NEAR ST. ANTHONY,PE,ACTIVE,TRUE,46.74411,-64.187,America/Halifax,-4,Etc/GMT+4
01CB002,DUNK RIVER AT WALL ROAD,PE,ACTIVE,TRUE,46.34586,-63.63333,America/Halifax,-4,Etc/GMT+4
01CB004,WILMOT RIVER NEAR WILMOT VALLEY,PE,ACTIVE,TRUE,46.39331,-63.65939,America/Halifax,-4,Etc/GMT+4
01CB018,BARBARA WEIT STREAM AT CAVENDISH FARM,PE,ACTIVE,TRUE,46.4275,-63.68042,America/Halifax,-4,Etc/GMT+4
01CC002,WINTER RIVER NEAR SUFFOLK,PE,ACTIVE,TRUE,46.33206,-63.06547,America/Halifax,-4,Etc/GMT+4
01CC005,WEST RIVER AT RIVERDALE,PE,ACTIVE,TRUE,46.23139,-63.35108,America/Halifax,-4,Etc/GMT+4
01CC010,WINTER RIVER AT UNION,PE,ACTIVE,TRUE,46.31481,-63.12336,America/Halifax,-4,Etc/GMT+4
01CC011,COLES CREEK AT MILTONVALE PUMPING STATION,PE,ACTIVE,TRUE,46.31025,-63.19489,America/Halifax,-4,Etc/GMT+4
01CD005,BEAR RIVER AT ST. MARGARETS,PE,ACTIVE,TRUE,46.45314,-62.38233,America/Halifax,-4,Etc/GMT+4
01DC005,ANNAPOLIS RIVER AT WILMOT,NS,ACTIVE,TRUE,44.94919,-65.02939,America/Halifax,-4,Etc/GMT+4
01DC007,ANNAPOLIS RIVER AT LAWRENCETOWN,NS,ACTIVE,TRUE,44.88083,-65.15792,America/Halifax,-4,Etc/GMT+4
01DD002,CORNWALLIS RIVER AT CAMBRIDGE STATION,NS,ACTIVE,TRUE,45.06478,-64.63533,America/Halifax,-4,Etc/GMT+4
01DD005,NORTH BROOK AT SHEFFIELD MILLS,NS,ACTIVE,TRUE,45.15056,-64.475,America/Halifax,-4,Etc/GMT+4
01DG003,BEAVERBANK RIVER NEAR KINSAC,NS,ACTIVE,TRUE,44.85111,-63.66389,America/Halifax,-4,Etc/GMT+4
01DG043,ST ANDREWS RIVER AT STEWIACKE,NS,ACTIVE,TRUE,45.12306,-63.34975,America/Halifax,-4,Etc/GMT+4
01DH002,SALMON RIVER AT MURRAY,NS,ACTIVE,TRUE,45.36917,-63.21544,America/Halifax,-4,Etc/GMT+4
01DH004,NORTH RIVER AT NORTH RIVER,NS,ACTIVE,TRUE,45.42556,-63.25472,America/Halifax,-4,Etc/GMT+4
01DH006,MCCLURES BROOK AT COBEQUID TRAIL,NS,ACTIVE,TRUE,45.35883,-63.29589,America/Halifax,-4,Etc/GMT+4
01DJ005,GREAT VILLAGE RIVER NEAR SCRABBLE HILL,NS,ACTIVE,TRUE,45.43822,-63.598,America/Halifax,-4,Etc/GMT+4
01DL001,KELLEY RIVER (MILL CREEK) AT EIGHT MILE FORD,NS,ACTIVE,TRUE,45.58681,-64.45069,America/Halifax,-4,Etc/GMT+4
01DP004,MIDDLE RIVER OF PICTOU AT ROCKLIN,NS,ACTIVE,TRUE,45.49739,-62.78019,America/Halifax,-4,Etc/GMT+4
01DR001,SOUTH RIVER AT ST. ANDREWS,NS,ACTIVE,TRUE,45.55972,-61.90364,America/Halifax,-4,Etc/GMT+4
01EA003,TUSKET RIVER AT WILSON'S BRIDGE,NS,ACTIVE,TRUE,43.92481,-65.86853,America/Halifax,-4,Etc/GMT+4
01EC001,ROSEWAY RIVER AT LOWER OHIO,NS,ACTIVE,TRUE,43.83736,-65.36911,America/Halifax,-4,Etc/GMT+4
01ED005,MERSEY RIVER BELOW GEORGE LAKE,NS,ACTIVE,TRUE,44.33314,-65.20508,America/Halifax,-4,Etc/GMT+4
01ED007,MERSEY RIVER BELOW MILL FALLS,NS,ACTIVE,TRUE,44.43678,-65.22186,America/Halifax,-4,Etc/GMT+4
01ED013,SHELBURNE RIVER AT POLLARD'S FALLS BRIDGE,NS,ACTIVE,TRUE,44.21542,-65.24142,America/Halifax,-4,Etc/GMT+4
01EE005,MOOSE PIT BROOK AT TUPPER LAKE,NS,ACTIVE,TRUE,44.46183,-65.04778,America/Halifax,-4,Etc/GMT+4
01EF001,LAHAVE RIVER AT WEST NORTHFIELD,NS,ACTIVE,TRUE,44.44744,-64.59119,America/Halifax,-4,Etc/GMT+4
01EJ001,SACKVILLE RIVER AT BEDFORD,NS,ACTIVE,TRUE,44.73153,-63.66044,America/Halifax,-4,Etc/GMT+4
01EJ004,LITTLE SACKVILLE RIVER AT MIDDLE SACKVILLE,NS,ACTIVE,TRUE,44.76447,-63.6875,America/Halifax,-4,Etc/GMT+4
01EO001,ST. MARYS RIVER AT STILLWATER,NS,ACTIVE,TRUE,45.17439,-61.97992,America/Halifax,-4,Etc/GMT+4
01FA001,RIVER INHABITANTS AT GLENORA,NS,ACTIVE,TRUE,45.72025,-61.28611,America/Halifax,-4,Etc/GMT+4
01FB001,NORTHEAST MARGAREE RIVER AT MARGAREE VALLEY,NS,ACTIVE,TRUE,46.36897,-60.97528,America/Halifax,-4,Etc/GMT+4
01FB003,SOUTHWEST MARGAREE RIVER NEAR UPPER MARGAREE,NS,ACTIVE,TRUE,46.22311,-61.13692,America/Halifax,-4,Etc/GMT+4
01FC002,CHETICAMP RIVER ABOVE ROBERT BROOK,NS,ACTIVE,TRUE,46.64158,-60.94611,America/Halifax,-4,Etc/GMT+4
01FE002,INDIAN BROOK AT INDIAN BROOK,NS,ACTIVE,TRUE,46.37172,-60.53369,America/Halifax,-4,Etc/GMT+4
01FF001,MIDDLE RIVER AT MACLENNANS CROSS,NS,ACTIVE,TRUE,46.19,-60.94181,America/Halifax,-4,Etc/GMT+4
01FG001,RIVER DENYS AT BIG MARSH,NS,ACTIVE,TRUE,45.89369,-61.20475,America/Halifax,-4,Etc/GMT+4
01FJ002,MACASKILLS BROOK NEAR BIRCH GROVE,NS,ACTIVE,TRUE,46.11789,-60.00467,America/Glace_Bay,-4,Etc/GMT+4
02AB006,KAMINISTIQUIA RIVER AT KAMINISTIQUIA,ON,ACTIVE,TRUE,48.53231,-89.595,America/Toronto,-5,Etc/GMT+5
02AB008,NEEBING RIVER NEAR THUNDER BAY,ON,ACTIVE,TRUE,48.38339,-89.30656,America/Thunder_Bay,-5,Etc/GMT+5
02AB014,NORTH CURRENT RIVER NEAR THUNDER BAY,ON,ACTIVE,TRUE,48.51956,-89.17503,America/Toronto,-5,Etc/GMT+5
02AB017,WHITEFISH RIVER AT NOLALU,ON,ACTIVE,TRUE,48.29211,-89.80986,America/Toronto,-5,Etc/GMT+5
02AB019,MCVICAR CREEK AT THUNDER BAY,ON,ACTIVE,TRUE,48.4492,-89.21861,America/Thunder_Bay,-5,Etc/GMT+5
02AB020,MCINTYRE RIVER ABOVE THUNDER BAY,ON,ACTIVE,TRUE,48.48269,-89.32464,America/Thunder_Bay,-5,Etc/GMT+5
02AB021,CURRENT RIVER AT STEPSTONE,ON,ACTIVE,TRUE,48.56244,-89.24067,America/Toronto,-5,Etc/GMT+5
02AB022,CORBETT CREEK NEAR MURILLO,ON,ACTIVE,TRUE,48.42862,-89.545632,America/Toronto,-5,Etc/GMT+5
02AB023,SLATE RIVER NEAR THUNDER BAY,ON,ACTIVE,TRUE,48.32576,-89.40421,America/Toronto,-5,Etc/GMT+5
02AB024,NEEBING RIVER NEAR INTOLA,ON,ACTIVE,TRUE,48.44281,-89.35776,America/Thunder_Bay,-5,Etc/GMT+5
02AB025,KAMINISTIQUIA RIVER AT WEST FORT WILLIAM,ON,ACTIVE,TRUE,48.34786,-89.35328,America/Thunder_Bay,-5,Etc/GMT+5
02AB026,KAMINISTIQUIA RIVER ABOVE WEST FORT WILLIAM,ON,ACTIVE,TRUE,48.34611,-89.38619,America/Thunder_Bay,-5,Etc/GMT+5
02AB027,WHITEFISH RIVER NEAR STANLEY,ON,ACTIVE,TRUE,48.3593,-89.60352,America/Toronto,-5,Etc/GMT+5
02AC001,WOLF RIVER AT HIGHWAY NO. 17,ON,ACTIVE,TRUE,48.82169,-88.53461,America/Toronto,-5,Etc/GMT+5
02AC002,BLACK STURGEON RIVER AT HIGHWAY NO. 17,ON,ACTIVE,TRUE,48.90422,-88.37686,America/Toronto,-5,Etc/GMT+5
02AD010,BLACKWATER RIVER AT BEARDMORE,ON,ACTIVE,TRUE,49.59761,-87.96544,America/Toronto,-5,Etc/GMT+5
02AD012,NIPIGON RIVER BELOW ALEXANDER GENERATING STATION,ON,ACTIVE,TRUE,49.1227,-88.35787,America/Toronto,-5,Etc/GMT+5
02AE001,GRAVEL RIVER NEAR CAVERS,ON,ACTIVE,TRUE,48.926,-87.69019,America/Toronto,-5,Etc/GMT+5
02BA003,LITTLE PIC RIVER NEAR COLDWELL,ON,ACTIVE,TRUE,48.84911,-86.607223,America/Toronto,-5,Etc/GMT+5
02BA005,WHITESAND RIVER ABOVE SCHREIBER AT MINOVA MINE,ON,ACTIVE,TRUE,48.97811,-87.37678,America/Toronto,-5,Etc/GMT+5
02BA006,STEEL RIVER BELOW SANTOY LAKE,ON,ACTIVE,TRUE,48.81371,-86.859337,America/Toronto,-5,Etc/GMT+5
02BB003,PIC RIVER NEAR MARATHON,ON,ACTIVE,TRUE,48.77408,-86.29661,America/Toronto,-5,Etc/GMT+5
02BB004,CEDAR CREEK NEAR HEMLO,ON,ACTIVE,TRUE,48.70542,-85.90794,America/Toronto,-5,Etc/GMT+5
02BC006,PUKASKWA RIVER BELOW FOX RIVER,ON,ACTIVE,TRUE,48.16039,-85.73092,America/Toronto,-5,Etc/GMT+5
02BC007,WHITE LAKE AT WHITE LAKE PROVINCIAL PARK,ON,ACTIVE,TRUE,48.69289,-85.64214,America/Toronto,-5,Etc/GMT+5
02BC008,WHITE RIVER ABOVE OSKABUKUTA RIVER,ON,ACTIVE,TRUE,48.58783,-85.89128,America/Toronto,-5,Etc/GMT+5
02BD005,MAGPIE RIVER AT ESNAGI LAKE,ON,ACTIVE,TRUE,48.48044,-84.53269,America/Toronto,-5,Etc/GMT+5
02BD006,WAWA CREEK AT WAWA,ON,ACTIVE,TRUE,47.98939,-84.76811,America/Toronto,-5,Etc/GMT+5
02BD007,MAGPIE RIVER NEAR WAWA,ON,ACTIVE,TRUE,48.02203,-84.81317,America/Toronto,-5,Etc/GMT+5
02BF001,BATCHAWANA RIVER NEAR BATCHAWANA,ON,ACTIVE,TRUE,47.00353,-84.51556,America/Toronto,-5,Etc/GMT+5
02BF002,GOULAIS RIVER NEAR SEARCHMONT,ON,ACTIVE,TRUE,46.86094,-83.97181,America/Toronto,-5,Etc/GMT+5
02BF004,BIG CARP RIVER NEAR SAULT STE. MARIE,ON,ACTIVE,TRUE,46.51589,-84.46518,America/Toronto,-5,Etc/GMT+5
02BF014,GOULAIS RIVER NEAR KIRBY'S CORNER,ON,ACTIVE,TRUE,46.71739,-84.28478,America/Toronto,-5,Etc/GMT+5
02CA002,ROOT RIVER AT SAULT STE. MARIE,ON,ACTIVE,TRUE,46.56286,-84.28169,America/Toronto,-5,Etc/GMT+5
02CA003,ST. MARYS RIVER NEAR GARDEN RIVER,ON,ACTIVE,TRUE,46.53258,-84.13125,America/Toronto,-5,Etc/GMT+5
02CA007,THESSALON RIVER NEAR POPLAR DALE,ON,ACTIVE,TRUE,46.53047,-83.70961,America/Toronto,-5,Etc/GMT+5
02CB003,AUBINADONG RIVER ABOVE SESABIC CREEK,ON,ACTIVE,TRUE,46.96842,-83.41686,America/Toronto,-5,Etc/GMT+5
02CC005,LITTLE WHITE RIVER NEAR BELLINGHAM,ON,ACTIVE,TRUE,46.39395,-83.28298,America/Toronto,-5,Etc/GMT+5
02CC010,LITTLE WHITE RIVER BELOW BOLAND RIVER,ON,ACTIVE,TRUE,46.58114,-82.968,America/Toronto,-5,Etc/GMT+5
02CD001,SERPENT RIVER AT HIGHWAY NO. 17,ON,ACTIVE,TRUE,46.21078,-82.51242,America/Toronto,-5,Etc/GMT+5
02CD006,SERPENT RIVER ABOVE QUIRKE LAKE,ON,ACTIVE,TRUE,46.51158,-82.60028,America/Toronto,-5,Etc/GMT+5
02CE002,AUX SABLES RIVER AT MASSEY,ON,ACTIVE,TRUE,46.21494,-82.07081,America/Toronto,-5,Etc/GMT+5
02CE007,MINISTIC CREEK ABOVE AGNEW LAKE,ON,ACTIVE,TRUE,46.42957,-81.60033,America/Toronto,-5,Etc/GMT+5
02CF005,JUNCTION CREEK AT SUDBURY,ON,ACTIVE,TRUE,46.47872,-81.01042,America/Toronto,-5,Etc/GMT+5
02CF007,WHITSON RIVER AT CHELMSFORD,ON,ACTIVE,TRUE,46.58336,-81.19911,America/Toronto,-5,Etc/GMT+5
02CF008,WHITSON RIVER AT VAL CARON,ON,ACTIVE,TRUE,46.61017,-81.03297,America/Toronto,-5,Etc/GMT+5
02CF010,ONAPING RIVER NEAR LEVACK,ON,ACTIVE,TRUE,46.5995,-81.38197,America/Toronto,-5,Etc/GMT+5
02CF011,VERMILION RIVER NEAR VAL CARON,ON,ACTIVE,TRUE,46.68544,-81.00925,America/Toronto,-5,Etc/GMT+5
02CF012,JUNCTION CREEK BELOW KELLEY LAKE,ON,ACTIVE,TRUE,46.42731,-81.09844,America/Toronto,-5,Etc/GMT+5
02CF013,MOOSE CREEK AT LEVACK,ON,ACTIVE,TRUE,46.63594,-81.39147,America/Toronto,-5,Etc/GMT+5
02CF014,VERMILION RIVER NEAR MILNET,ON,ACTIVE,TRUE,46.81944,-80.95714,America/Toronto,-5,Etc/GMT+5
02CG003,BLUE JAY CREEK NEAR TEHKUMMAH,ON,ACTIVE,TRUE,45.65169,-81.98661,America/Toronto,-5,Etc/GMT+5
02CG005,MINDEMOYA LAKE AT MINDEMOYA,ON,ACTIVE,TRUE,45.74989,-82.18489,America/Toronto,-5,Etc/GMT+5
02CH001,FROOD LAKE NEAR WHITEFISH FALLS,ON,ACTIVE,TRUE,46.11861,-81.72839,America/Toronto,-5,Etc/GMT+5
02CH002,PANACHE LAKE AT JACKSON'S POINT,ON,ACTIVE,TRUE,46.27358,-81.34458,America/Toronto,-5,Etc/GMT+5
02DB005,WANAPITEI RIVER NEAR WANUP,ON,ACTIVE,TRUE,46.34567,-80.83956,America/Toronto,-5,Etc/GMT+5
02DB007,CONISTON CREEK ABOVE WANAPITEI RIVER,ON,ACTIVE,TRUE,46.47528,-80.82153,America/Toronto,-5,Etc/GMT+5
02DC004,STURGEON RIVER NEAR GLEN AFTON,ON,ACTIVE,TRUE,46.63717,-80.26325,America/Toronto,-5,Etc/GMT+5
02DC012,STURGEON RIVER AT UPPER GOOSE FALLS,ON,ACTIVE,TRUE,46.97025,-80.45878,America/Toronto,-5,Etc/GMT+5
02DC013,LITTLE STURGEON RIVER BELOW BOOTH LAKE,ON,ACTIVE,TRUE,46.42761,-79.66203,America/Toronto,-5,Etc/GMT+5
02DD006,LAKE NIPISSING AT NORTH BAY,ON,ACTIVE,TRUE,46.31183,-79.47381,America/Toronto,-5,Etc/GMT+5
02DD010,FRENCH RIVER AT DRY PINE BAY,ON,ACTIVE,TRUE,46.06858,-80.61164,America/Toronto,-5,Etc/GMT+5
02DD012,VEUVE RIVER NEAR VERNER,ON,ACTIVE,TRUE,46.40819,-80.12281,America/Toronto,-5,Etc/GMT+5
02DD013,LA VASE RIVER AT NORTH BAY,ON,ACTIVE,TRUE,46.26344,-79.39511,America/Toronto,-5,Etc/GMT+5
02DD014,CHIPPEWA CREEK AT NORTH BAY,ON,ACTIVE,TRUE,46.31178,-79.44836,America/Toronto,-5,Etc/GMT+5
02DD015,COMMANDA CREEK NEAR COMMANDA,ON,ACTIVE,TRUE,45.94919,-79.60658,America/Toronto,-5,Etc/GMT+5
02DD016,FRENCH RIVER AT PORTAGE DAM,ON,ACTIVE,TRUE,46.1205,-80.01808,America/Toronto,-5,Etc/GMT+5
02DD017,FRENCH RIVER AT CHAUDIERE DAM,ON,ACTIVE,TRUE,46.12083,-80.0275,America/Toronto,-5,Etc/GMT+5
02DD020,LITTLE FRENCH RIVER AT OKIKENDAWT ISLAND,ON,ACTIVE,TRUE,46.12314,-80.07911,America/Toronto,-5,Etc/GMT+5
02DD021,LAKE NIPISSING AT FRENCH RIVER OUTLET,ON,ACTIVE,TRUE,46.12553,-80.01231,America/Toronto,-5,Etc/GMT+5
02DD022,DOLLARS LAKE BELOW S NARROWS,ON,ACTIVE,TRUE,45.92039,-80.24175,America/Toronto,-5,Etc/GMT+5
02DD023,FOREST LAKE AT SOUTH RIVER,ON,ACTIVE,TRUE,45.83969,-79.35692,America/Toronto,-5,Etc/GMT+5
02DD024,WASI RIVER NEAR ASTORVILLE,ON,ACTIVE,TRUE,46.17842,-79.30989,America/Toronto,-5,Etc/GMT+5
02DD025,FRENCH RIVER AT HARTLEY BAY,ON,ACTIVE,TRUE,46.03522,-80.76011,America/Toronto,-5,Etc/GMT+5
02DD026,FRENCH RIVER AT WOLSELEY BAY,ON,ACTIVE,TRUE,46.10572,-80.26528,America/Toronto,-5,Etc/GMT+5
02EA005,NORTH MAGNETAWAN RIVER NEAR BURK'S FALLS,ON,ACTIVE,TRUE,45.66947,-79.37919,America/Toronto,-5,Etc/GMT+5
02EA010,NORTH MAGNETAWAN RIVER ABOVE PICKEREL LAKE,ON,ACTIVE,TRUE,45.70377,-79.30879,America/Toronto,-5,Etc/GMT+5
02EA011,MAGNETAWAN RIVER NEAR BRITT,ON,ACTIVE,TRUE,45.77306,-80.48233,America/Toronto,-5,Etc/GMT+5
02EA015,CECEBE LAKE AT MAGNETAWAN,ON,ACTIVE,TRUE,45.66497,-79.64097,America/Toronto,-5,Etc/GMT+5
02EA016,DOE LAKE NEAR KATRINE,ON,ACTIVE,TRUE,45.57195,-79.36685,America/Toronto,-5,Etc/GMT+5
02EA018,MAGNETAWAN RIVER NEAR EMSDALE,ON,ACTIVE,TRUE,45.5567,-79.28798,America/Toronto,-5,Etc/GMT+5
02EA019,AHMIC LAKE NEAR AHMIC HARBOUR,ON,ACTIVE,TRUE,45.66907,-79.74521,America/Toronto,-5,Etc/GMT+5
02EA020,BERNARD LAKE AT SUNDRIDGE,ON,ACTIVE,TRUE,45.718,-79.41733,America/Toronto,-5,Etc/GMT+5
02EA021,SHAWANAGA RIVER BELOW SHAWANAGA LAKE,ON,ACTIVE,TRUE,45.55894,-80.03797,America/Toronto,-5,Etc/GMT+5
02EB004,NORTH BRANCH MUSKOKA RIVER AT PORT SYDNEY,ON,ACTIVE,TRUE,45.21286,-79.27528,America/Toronto,-5,Etc/GMT+5
02EB008,SOUTH BRANCH MUSKOKA RIVER AT BAYSVILLE,ON,ACTIVE,TRUE,45.14797,-79.1135,America/Toronto,-5,Etc/GMT+5
02EB011,MOON RIVER AT HIGHWAY NO. 400,ON,ACTIVE,TRUE,45.06506,-79.79014,America/Toronto,-5,Etc/GMT+5
02EB012,MUSQUASH RIVER AT HIGHWAY NO. 400,ON,ACTIVE,TRUE,45.02253,-79.77681,America/Toronto,-5,Etc/GMT+5
02EB013,BIG EAST RIVER NEAR HUNTSVILLE,ON,ACTIVE,TRUE,45.39272,-79.15994,America/Toronto,-5,Etc/GMT+5
02EB014,OXTONGUE RIVER NEAR DWIGHT,ON,ACTIVE,TRUE,45.31197,-78.98939,America/Toronto,-5,Etc/GMT+5
02EB015,BALA BAY AT BALA,ON,ACTIVE,TRUE,45.01314,-79.61353,America/Toronto,-5,Etc/GMT+5
02EB016,FAIRY LAKE AT HUNTSVILLE,ON,ACTIVE,TRUE,45.3242,-79.21194,America/Toronto,-5,Etc/GMT+5
02EB017,KAWAGAMA LAKE AT RUSSELL LANDING,ON,ACTIVE,TRUE,45.26403,-78.81469,America/Toronto,-5,Etc/GMT+5
02EB018,LAKE MUSKOKA AT BEAUMARIS,ON,ACTIVE,TRUE,45.07042,-79.49383,America/Toronto,-5,Etc/GMT+5
02EB019,LAKE OF BAYS AT BAYSVILLE,ON,ACTIVE,TRUE,45.14881,-79.11328,America/Toronto,-5,Etc/GMT+5
02EB020,LAKE ROSSEAU AT PORT CARLING,ON,ACTIVE,TRUE,45.12008,-79.5765,America/Toronto,-5,Etc/GMT+5
02EB021,MARY LAKE AT PORT SYDNEY,ON,ACTIVE,TRUE,45.21986,-79.27639,America/Toronto,-5,Etc/GMT+5
02EB022,SMOKE LAKE AT ALGONQUIN PROVINCIAL PARK,ON,ACTIVE,TRUE,45.54156,-78.69539,America/Toronto,-5,Etc/GMT+5
02EB023,GO HOME LAKE NEAR POTTERS LANDING,ON,ACTIVE,TRUE,44.98611,-79.82858,America/Toronto,-5,Etc/GMT+5
02EC002,BLACK RIVER NEAR WASHAGO,ON,ACTIVE,TRUE,44.71367,-79.28161,America/Toronto,-5,Etc/GMT+5
02EC008,BLACK RIVER AT BALDWIN,ON,ACTIVE,TRUE,44.26064,-79.34389,America/Toronto,-5,Etc/GMT+5
02EC009,HOLLAND RIVER EAST BRANCH AT HOLLAND LANDING,ON,ACTIVE,TRUE,44.09492,-79.48956,America/Toronto,-5,Etc/GMT+5
02EC010,SCHOMBERG RIVER NEAR SCHOMBERG,ON,ACTIVE,TRUE,44.01214,-79.68564,America/Toronto,-5,Etc/GMT+5
02EC011,BEAVER RIVER NEAR BEAVERTON,ON,ACTIVE,TRUE,44.39708,-79.07083,America/Toronto,-5,Etc/GMT+5
02EC014,SEVERN RIVER ABOVE WASDELL FALLS,ON,ACTIVE,TRUE,44.77531,-79.29714,America/Toronto,-5,Etc/GMT+5
02EC018,PEFFERLAW BROOK NEAR UDORA,ON,ACTIVE,TRUE,44.26753,-79.19461,America/Toronto,-5,Etc/GMT+5
02EC019,BLACK RIVER NEAR VANKOUGHNET,ON,ACTIVE,TRUE,44.99256,-79.04956,America/Toronto,-5,Etc/GMT+5
02EC020,HAWKESTONE CREEK AT HAWKESTONE,ON,ACTIVE,TRUE,44.49697,-79.46797,America/Toronto,-5,Etc/GMT+5
02EC021,UXBRIDGE BROOK NEAR UXBRIDGE,ON,ACTIVE,TRUE,44.13808,-79.11276,America/Toronto,-5,Etc/GMT+5
02EC022,HEAD RIVER NEAR SEBRIGHT,ON,ACTIVE,TRUE,44.72561,-79.07044,America/Toronto,-5,Etc/GMT+5
02ED003,NOTTAWASAGA RIVER NEAR BAXTER,ON,ACTIVE,TRUE,44.24981,-79.82142,America/Toronto,-5,Etc/GMT+5
02ED007,COLDWATER RIVER AT COLDWATER,ON,ACTIVE,TRUE,44.70719,-79.64375,America/Toronto,-5,Etc/GMT+5
02ED013,WYE RIVER NEAR WYEVALE,ON,ACTIVE,TRUE,44.64978,-79.90375,America/Toronto,-5,Etc/GMT+5
02ED014,PINE RIVER NEAR EVERETT,ON,ACTIVE,TRUE,44.20003,-79.96,America/Toronto,-5,Etc/GMT+5
02ED015,MAD RIVER AT AVENING,ON,ACTIVE,TRUE,44.30736,-80.07203,America/Toronto,-5,Etc/GMT+5
02ED017,HOGG CREEK NEAR VICTORIA HARBOUR,ON,ACTIVE,TRUE,44.72606,-79.77897,America/Toronto,-5,Etc/GMT+5
02ED024,NORTH RIVER AT THE FALLS,ON,ACTIVE,TRUE,44.76767,-79.57828,America/Toronto,-5,Etc/GMT+5
02ED026,NOTTAWASAGA RIVER AT HOCKLEY,ON,ACTIVE,TRUE,44.02475,-79.96989,America/Toronto,-5,Etc/GMT+5
02ED027,NOTTAWASAGA RIVER NEAR EDENVALE,ON,ACTIVE,TRUE,44.485,-79.966,America/Toronto,-5,Etc/GMT+5
02ED029,INNISFIL CREEK NEAR ALLISTON,ON,ACTIVE,TRUE,44.13122,-79.78097,America/Toronto,-5,Etc/GMT+5
02ED030,SILVER CREEK AT ORILLIA,ON,ACTIVE,TRUE,44.64681,-79.45203,America/Toronto,-5,Etc/GMT+5
02ED031,PRETTY RIVER AT COLLINGWOOD,ON,ACTIVE,TRUE,44.50006,-80.19872,America/Toronto,-5,Etc/GMT+5
02ED032,WILLOW CREEK NEAR MINESING,ON,ACTIVE,TRUE,44.4425,-79.7995,America/Toronto,-5,Etc/GMT+5
02ED100,BEETON CREEK NEAR TOTTENHAM,ON,ACTIVE,TRUE,44.04914,-79.80339,America/Toronto,-5,Etc/GMT+5
02ED101,NOTTAWASAGA RIVER NEAR ALLISTON,ON,ACTIVE,TRUE,44.11058,-79.89028,America/Toronto,-5,Etc/GMT+5
02ED102,BOYNE RIVER AT EARL ROWE PARK,ON,ACTIVE,TRUE,44.1525,-79.89664,America/Toronto,-5,Etc/GMT+5
02FA001,SAUBLE RIVER AT SAUBLE FALLS,ON,ACTIVE,TRUE,44.67753,-81.25606,America/Toronto,-5,Etc/GMT+5
02FA002,STOKES RIVER NEAR FERNDALE,ON,ACTIVE,TRUE,45.03697,-81.33636,America/Toronto,-5,Etc/GMT+5
02FA004,SAUBLE RIVER AT ALLENFORD,ON,ACTIVE,TRUE,44.53553,-81.17769,America/Toronto,-5,Etc/GMT+5
02FB007,SYDENHAM RIVER NEAR OWEN SOUND,ON,ACTIVE,TRUE,44.52225,-80.93019,America/Toronto,-5,Etc/GMT+5
02FB009,BEAVER RIVER NEAR CLARKSBURG,ON,ACTIVE,TRUE,44.51986,-80.46778,America/Toronto,-5,Etc/GMT+5
02FB010,BIGHEAD RIVER NEAR MEAFORD,ON,ACTIVE,TRUE,44.57017,-80.6485,America/Toronto,-5,Etc/GMT+5
02FB012,MILL CREEK NEAR RED WING,ON,ACTIVE,TRUE,44.46423,-80.48576,America/Toronto,-5,Etc/GMT+5
02FB013,BEAVER RIVER NEAR VANDELEUR,ON,ACTIVE,TRUE,44.34614,-80.53997,America/Toronto,-5,Etc/GMT+5
02FB014,BIGHEAD RIVER NEAR STRATHAVON,ON,ACTIVE,TRUE,44.47178,-80.77653,America/Toronto,-5,Etc/GMT+5
02FC001,SAUGEEN RIVER NEAR PORT ELGIN,ON,ACTIVE,TRUE,44.45647,-81.32644,America/Toronto,-5,Etc/GMT+5
02FC002,SAUGEEN RIVER NEAR WALKERTON,ON,ACTIVE,TRUE,44.12047,-81.11533,America/Toronto,-5,Etc/GMT+5
02FC011,CARRICK CREEK NEAR CARLSRUHE,ON,ACTIVE,TRUE,44.11339,-81.01925,America/Toronto,-5,Etc/GMT+5
02FC012,SOUTH SAUGEEN RIVER NEAR HANOVER,ON,ACTIVE,TRUE,44.09869,-80.98456,America/Toronto,-5,Etc/GMT+5
02FC015,TEESWATER RIVER NEAR PAISLEY,ON,ACTIVE,TRUE,44.26831,-81.26919,America/Toronto,-5,Etc/GMT+5
02FC016,SAUGEEN RIVER ABOVE DURHAM,ON,ACTIVE,TRUE,44.18542,-80.78747,America/Toronto,-5,Etc/GMT+5
02FC017,BEATTY SAUGEEN RIVER NEAR HOLSTEIN,ON,ACTIVE,TRUE,44.09047,-80.74194,America/Toronto,-5,Etc/GMT+5
02FC020,TEESWATER RIVER AT TEESWATER,ON,ACTIVE,TRUE,44.00061,-81.28381,America/Toronto,-5,Etc/GMT+5
02FC021,CAMP CREEK AT ALLAN PARK,ON,ACTIVE,TRUE,44.16106,-80.92911,America/Toronto,-5,Etc/GMT+5
02FD001,PINE RIVER AT LURGAN,ON,ACTIVE,TRUE,44.09467,-81.72578,America/Toronto,-5,Etc/GMT+5
02FD002,LUCKNOW RIVER AT LUCKNOW,ON,ACTIVE,TRUE,43.96528,-81.51344,America/Toronto,-5,Etc/GMT+5
02FD003,NORTH PENETANGORE RIVER AT KINCARDINE,ON,ACTIVE,TRUE,44.17281,-81.63106,America/Toronto,-5,Etc/GMT+5
02FE002,MAITLAND RIVER BELOW WINGHAM,ON,ACTIVE,TRUE,43.88675,-81.32644,America/Toronto,-5,Etc/GMT+5
02FE003,MIDDLE MAITLAND RIVER NEAR LISTOWEL,ON,ACTIVE,TRUE,43.72723,-80.97267,America/Toronto,-5,Etc/GMT+5
02FE005,MAITLAND RIVER ABOVE WINGHAM,ON,ACTIVE,TRUE,43.91508,-81.26439,America/Toronto,-5,Etc/GMT+5
02FE007,LITTLE MAITLAND RIVER AT BLUEVALE,ON,ACTIVE,TRUE,43.85439,-81.2505,America/Toronto,-5,Etc/GMT+5
02FE008,MIDDLE MAITLAND RIVER NEAR BELGRAVE,ON,ACTIVE,TRUE,43.81289,-81.30689,America/Toronto,-5,Etc/GMT+5
02FE009,SOUTH MAITLAND RIVER AT SUMMERHILL,ON,ACTIVE,TRUE,43.68436,-81.54117,America/Toronto,-5,Etc/GMT+5
02FE010,BOYLE DRAIN NEAR ATWOOD,ON,ACTIVE,TRUE,43.67634,-81.07485,America/Toronto,-5,Etc/GMT+5
02FE011,MAITLAND RIVER NEAR HARRISTON,ON,ACTIVE,TRUE,43.90381,-80.89261,America/Toronto,-5,Etc/GMT+5
02FE013,MIDDLE MAITLAND RIVER ABOVE ETHEL,ON,ACTIVE,TRUE,43.71839,-81.12464,America/Toronto,-5,Etc/GMT+5
02FE014,BLYTH BROOK BELOW BLYTH,ON,ACTIVE,TRUE,43.76033,-81.46319,America/Toronto,-5,Etc/GMT+5
02FE015,MAITLAND RIVER AT BENMILLER,ON,ACTIVE,TRUE,43.71756,-81.62619,America/Toronto,-5,Etc/GMT+5
02FE016,SOUTH MAITLAND RIVER AT ROXBORO,ON,ACTIVE,TRUE,43.57925,-81.40131,America/Toronto,-5,Etc/GMT+5
02FE017,LAKELET CREEK NEAR GORRIE,ON,ACTIVE,TRUE,43.89292,-81.06328,America/Toronto,-5,Etc/GMT+5
02FE018,BLIND CREEK NEAR FORDWICH,ON,ACTIVE,TRUE,43.89473,-81.03733,America/Toronto,-5,Etc/GMT+5
02FF002,AUSABLE RIVER NEAR SPRINGBANK,ON,ACTIVE,TRUE,43.07192,-81.65975,America/Toronto,-5,Etc/GMT+5
02FF004,SOUTH PARKHILL CREEK NEAR PARKHILL,ON,ACTIVE,TRUE,43.16075,-81.73183,America/Toronto,-5,Etc/GMT+5
02FF007,BAYFIELD RIVER NEAR VARNA,ON,ACTIVE,TRUE,43.55125,-81.58953,America/Toronto,-5,Etc/GMT+5
02FF008,PARKHILL CREEK ABOVE PARKHILL RESERVOIR,ON,ACTIVE,TRUE,43.16413,-81.631511,America/Toronto,-5,Etc/GMT+5
02FF009,AUSABLE RIVER NEAR EXETER,ON,ACTIVE,TRUE,43.36197,-81.50944,America/Toronto,-5,Etc/GMT+5
02FF010,AUSABLE RIVER NEAR PARKHILL,ON,ACTIVE,TRUE,43.19339,-81.8145,America/Toronto,-5,Etc/GMT+5
02FF011,SILVER CREEK AT SEAFORTH,ON,ACTIVE,TRUE,43.54536,-81.39636,America/Toronto,-5,Etc/GMT+5
02FF012,PERCH CREEK AT SARNIA,ON,ACTIVE,TRUE,42.98408,-82.31875,America/Toronto,-5,Etc/GMT+5
02FF013,LITTLE AUSABLE RIVER NEAR LUCAN CROSSING,ON,ACTIVE,TRUE,43.18056,-81.44767,America/Toronto,-5,Etc/GMT+5
02FF014,BLACK CREEK NEAR HENSALL,ON,ACTIVE,TRUE,43.41883,-81.49547,America/Toronto,-5,Etc/GMT+5
02FF015,TRICKS CREEK NEAR CLINTON,ON,ACTIVE,TRUE,43.59031,-81.58411,America/Toronto,-5,Etc/GMT+5
02FF016,LITTLE AUSABLE RIVER NEAR CENTRALIA,ON,ACTIVE,TRUE,43.28625,-81.41564,America/Toronto,-5,Etc/GMT+5
02GA003,GRAND RIVER AT GALT,ON,ACTIVE,TRUE,43.35311,-80.31575,America/Toronto,-5,Etc/GMT+5
02GA005,IRVINE RIVER NEAR SALEM,ON,ACTIVE,TRUE,43.693600000000004,-80.44531,America/Toronto,-5,Etc/GMT+5
02GA006,CONESTOGO RIVER AT ST. JACOBS,ON,ACTIVE,TRUE,43.54111,-80.55333,America/Toronto,-5,Etc/GMT+5
02GA010,NITH RIVER NEAR CANNING,ON,ACTIVE,TRUE,43.18972,-80.45503,America/Toronto,-5,Etc/GMT+5
02GA014,GRAND RIVER NEAR MARSVILLE,ON,ACTIVE,TRUE,43.86172,-80.27222,America/Toronto,-5,Etc/GMT+5
02GA015,SPEED RIVER BELOW GUELPH,ON,ACTIVE,TRUE,43.53372,-80.25222,America/Toronto,-5,Etc/GMT+5
02GA016,GRAND RIVER BELOW SHAND DAM,ON,ACTIVE,TRUE,43.73094,-80.34094,America/Toronto,-5,Etc/GMT+5
02GA018,NITH RIVER AT NEW HAMBURG,ON,ACTIVE,TRUE,43.37722,-80.71081,America/Toronto,-5,Etc/GMT+5
02GA023,CANAGAGIGUE CREEK NEAR ELMIRA,ON,ACTIVE,TRUE,43.57992,-80.50919,America/Toronto,-5,Etc/GMT+5
02GA024,LAUREL CREEK AT WATERLOO,ON,ACTIVE,TRUE,43.47192,-80.51427,America/Toronto,-5,Etc/GMT+5
02GA028,CONESTOGO RIVER AT GLEN ALLAN,ON,ACTIVE,TRUE,43.65483,-80.70217,America/Toronto,-5,Etc/GMT+5
02GA029,ERAMOSA RIVER ABOVE GUELPH,ON,ACTIVE,TRUE,43.54778,-80.18203,America/Toronto,-5,Etc/GMT+5
02GA030,ALDER CREEK NEAR NEW DUNDEE,ON,ACTIVE,TRUE,43.37229,-80.55109,America/Toronto,-5,Etc/GMT+5
02GA031,BLUE SPRINGS CREEK NEAR EDEN MILLS,ON,ACTIVE,TRUE,43.57614,-80.109,America/Toronto,-5,Etc/GMT+5
02GA034,GRAND RIVER AT WEST MONTROSE,ON,ACTIVE,TRUE,43.58503,-80.48147,America/Toronto,-5,Etc/GMT+5
02GA038,NITH RIVER ABOVE NITHBURG,ON,ACTIVE,TRUE,43.48389,-80.835,America/Toronto,-5,Etc/GMT+5
02GA039,CONESTOGO RIVER ABOVE DRAYTON,ON,ACTIVE,TRUE,43.78353,-80.63778,America/Toronto,-5,Etc/GMT+5
02GA040,SPEED RIVER NEAR ARMSTRONG MILLS,ON,ACTIVE,TRUE,43.63861,-80.27,America/Toronto,-5,Etc/GMT+5
02GA041,GRAND RIVER NEAR DUNDALK,ON,ACTIVE,TRUE,44.14003,-80.3627,America/Toronto,-5,Etc/GMT+5
02GA042,MOOREFIELD CREEK NEAR ROTHSAY,ON,ACTIVE,TRUE,43.823,-80.71786,America/Toronto,-5,Etc/GMT+5
02GA043,HUNSBURGER CREEK NEAR WILMOT CENTRE,ON,ACTIVE,TRUE,43.36447,-80.63261,America/Toronto,-5,Etc/GMT+5
02GA047,SPEED RIVER AT CAMBRIDGE,ON,ACTIVE,TRUE,43.42186,-80.33275,America/Toronto,-5,Etc/GMT+5
02GA048,GRAND RIVER NEAR DOON,ON,ACTIVE,TRUE,43.41281,-80.41703,America/Toronto,-5,Etc/GMT+5
02GA049,SMITH CREEK NEAR NEWTON,ON,ACTIVE,TRUE,43.59637,-80.89428,America/Toronto,-5,Etc/GMT+5
02GA050,LARCHES CREEK NEAR ELMIRA,ON,ACTIVE,TRUE,43.61619,-80.58343,America/Toronto,-5,Etc/GMT+5
02GB001,GRAND RIVER AT BRANTFORD,ON,ACTIVE,TRUE,43.13272,-80.26731,America/Toronto,-5,Etc/GMT+5
02GB006,HORNER CREEK NEAR PRINCETON,ON,ACTIVE,TRUE,43.17394,-80.55264,America/Toronto,-5,Etc/GMT+5
02GB007,FAIRCHILD CREEK NEAR BRANTFORD,ON,ACTIVE,TRUE,43.14739,-80.15461,America/Toronto,-5,Etc/GMT+5
02GB008,WHITEMANS CREEK NEAR MOUNT VERNON,ON,ACTIVE,TRUE,43.12625,-80.38372,America/Toronto,-5,Etc/GMT+5
02GB010,MCKENZIE CREEK NEAR CALEDONIA,ON,ACTIVE,TRUE,43.03394,-79.94981,America/Toronto,-5,Etc/GMT+5
02GC002,KETTLE CREEK AT ST. THOMAS,ON,ACTIVE,TRUE,42.77769,-81.214,America/Toronto,-5,Etc/GMT+5
02GC007,BIG CREEK NEAR WALSINGHAM,ON,ACTIVE,TRUE,42.68561,-80.53847,America/Toronto,-5,Etc/GMT+5
02GC008,LYNN RIVER AT SIMCOE,ON,ACTIVE,TRUE,42.82333,-80.28944,America/Toronto,-5,Etc/GMT+5
02GC010,BIG OTTER CREEK AT TILLSONBURG,ON,ACTIVE,TRUE,42.85731,-80.72358,America/Toronto,-5,Etc/GMT+5
02GC011,BIG CREEK NEAR KELVIN,ON,ACTIVE,TRUE,42.98681,-80.44469,America/Toronto,-5,Etc/GMT+5
02GC014,YOUNG CREEK NEAR VITTORIA,ON,ACTIVE,TRUE,42.76575,-80.29458,America/Toronto,-5,Etc/GMT+5
02GC017,BIG OTTER CREEK ABOVE OTTERVILLE,ON,ACTIVE,TRUE,42.96583,-80.54258,America/Toronto,-5,Etc/GMT+5
02GC018,CATFISH CREEK NEAR SPARTA,ON,ACTIVE,TRUE,42.74608,-81.05694,America/Toronto,-5,Etc/GMT+5
02GC021,VENISON CREEK NEAR WALSINGHAM,ON,ACTIVE,TRUE,42.65336,-80.54844,America/Toronto,-5,Etc/GMT+5
02GC022,NANTICOKE CREEK AT NANTICOKE,ON,ACTIVE,TRUE,42.80992,-80.07617,America/Toronto,-5,Etc/GMT+5
02GC026,BIG OTTER CREEK NEAR CALTON,ON,ACTIVE,TRUE,42.71067,-80.84081,America/Toronto,-5,Etc/GMT+5
02GC029,KETTLE CREEK ABOVE ST. THOMAS,ON,ACTIVE,TRUE,42.83519,-81.13472,America/Toronto,-5,Etc/GMT+5
02GC030,CATFISH CREEK AT AYLMER,ON,ACTIVE,TRUE,42.77375,-80.98267,America/Toronto,-5,Etc/GMT+5
02GC031,DODD CREEK BELOW PAYNES MILLS,ON,ACTIVE,TRUE,42.78739,-81.2675,America/Toronto,-5,Etc/GMT+5
02GC036,SILVER CREEK NEAR GROVESEND,ON,ACTIVE,TRUE,42.67583,-80.95333,America/Toronto,-5,Etc/GMT+5
02GC037,NANTICOKE CREEK NEAR DUNDURN,ON,ACTIVE,TRUE,42.96706,-80.3434,America/Toronto,-5,Etc/GMT+5
02GC038,VENISON CREEK NEAR LANGTON,ON,ACTIVE,TRUE,42.72765,-80.62653,America/Toronto,-5,Etc/GMT+5
02GD001,THAMES RIVER NEAR EALING,ON,ACTIVE,TRUE,42.97356,-81.20858,America/Toronto,-5,Etc/GMT+5
02GD003,NORTH THAMES RIVER BELOW FANSHAWE DAM,ON,ACTIVE,TRUE,43.04078,-81.18283,America/Toronto,-5,Etc/GMT+5
02GD004,MIDDLE THAMES RIVER AT THAMESFORD,ON,ACTIVE,TRUE,43.05911,-80.99486,America/Toronto,-5,Etc/GMT+5
02GD005,NORTH THAMES RIVER AT ST. MARYS,ON,ACTIVE,TRUE,43.25575,-81.14562,America/Toronto,-5,Etc/GMT+5
02GD008,MEDWAY RIVER AT LONDON,ON,ACTIVE,TRUE,43.01367,-81.28044,America/Toronto,-5,Etc/GMT+5
02GD009,TROUT CREEK NEAR ST. MARYS,ON,ACTIVE,TRUE,43.27322,-81.10322,America/Toronto,-5,Etc/GMT+5
02GD010,FISH CREEK NEAR PROSPECT HILL,ON,ACTIVE,TRUE,43.22047,-81.23681,America/Toronto,-5,Etc/GMT+5
02GD011,CEDAR CREEK AT WOODSTOCK,ON,ACTIVE,TRUE,43.122,-80.75153,America/Toronto,-5,Etc/GMT+5
02GD014,NORTH THAMES RIVER NEAR MITCHELL,ON,ACTIVE,TRUE,43.45042,-81.20678,America/Toronto,-5,Etc/GMT+5
02GD015,NORTH THAMES RIVER NEAR THORNDALE,ON,ACTIVE,TRUE,43.14931,-81.19214,America/Toronto,-5,Etc/GMT+5
02GD016,THAMES RIVER AT INGERSOLL,ON,ACTIVE,TRUE,43.04128,-80.88617,America/Toronto,-5,Etc/GMT+5
02GD018,AVON RIVER BELOW STRATFORD,ON,ACTIVE,TRUE,43.34472,-81.11642,America/Toronto,-5,Etc/GMT+5
02GD019,TROUT CREEK NEAR FAIRVIEW,ON,ACTIVE,TRUE,43.29558,-80.97303,America/Toronto,-5,Etc/GMT+5
02GD021,THAMES RIVER AT INNERKIP,ON,ACTIVE,TRUE,43.21531,-80.69186,America/Toronto,-5,Etc/GMT+5
02GD022,NISSOURI CREEK NEAR EMBRO,ON,ACTIVE,TRUE,43.13,-80.96333,America/Toronto,-5,Etc/GMT+5
02GD026,AVON RIVER ABOVE STRATFORD,ON,ACTIVE,TRUE,43.37653,-80.93806,America/Toronto,-5,Etc/GMT+5
02GD027,REYNOLDS CREEK NEAR PUTNAM,ON,ACTIVE,TRUE,42.98156,-80.95461,America/Toronto,-5,Etc/GMT+5
02GD028,STONEY CREEK AT LONDON,ON,ACTIVE,TRUE,43.022,-81.25344,America/Toronto,-5,Etc/GMT+5
02GE002,THAMES RIVER AT BYRON,ON,ACTIVE,TRUE,42.9625,-81.33178,America/Toronto,-5,Etc/GMT+5
02GE003,THAMES RIVER AT THAMESVILLE,ON,ACTIVE,TRUE,42.54486,-81.96727,America/Toronto,-5,Etc/GMT+5
02GE004,THAMES RIVER AT CHATHAM,ON,ACTIVE,TRUE,42.41428,-82.17944,America/Toronto,-5,Etc/GMT+5
02GE005,DINGMAN CREEK BELOW LAMBETH,ON,ACTIVE,TRUE,42.93411,-81.35131,America/Toronto,-5,Etc/GMT+5
02GE006,THAMES RIVER NEAR DUTTON,ON,ACTIVE,TRUE,42.73069,-81.57747,America/Toronto,-5,Etc/GMT+5
02GE007,MCGREGOR CREEK NEAR CHATHAM,ON,ACTIVE,TRUE,42.3835,-82.09506,America/Toronto,-5,Etc/GMT+5
02GE008,OXBOW CREEK NEAR KILWORTH,ON,ACTIVE,TRUE,42.966,-81.41803,America/Toronto,-5,Etc/GMT+5
02GE009,BIG CREEK NEAR COMBER,ON,ACTIVE,TRUE,42.20501,-82.52026,America/Toronto,-5,Etc/GMT+5
02GG002,SYDENHAM RIVER NEAR ALVINSTON,ON,ACTIVE,TRUE,42.83081,-81.85172,America/Toronto,-5,Etc/GMT+5
02GG003,SYDENHAM RIVER AT FLORENCE,ON,ACTIVE,TRUE,42.65061,-82.00839,America/Toronto,-5,Etc/GMT+5
02GG005,SYDENHAM RIVER AT STRATHROY,ON,ACTIVE,TRUE,42.95886,-81.62714,America/Toronto,-5,Etc/GMT+5
02GG006,BEAR CREEK NEAR PETROLIA,ON,ACTIVE,TRUE,42.90583,-82.11911,America/Toronto,-5,Etc/GMT+5
02GG008,SYDENHAM RIVER AT WALLACEBURG,ON,ACTIVE,TRUE,42.59289,-82.38333,America/Toronto,-5,Etc/GMT+5
02GG009,BEAR CREEK BELOW BRIGDEN,ON,ACTIVE,TRUE,42.81203,-82.29842,America/Toronto,-5,Etc/GMT+5
02GG013,BLACK CREEK NEAR BRADSHAW,ON,ACTIVE,TRUE,42.76244,-82.25922,America/Toronto,-5,Etc/GMT+5
02GH002,RUSCOM RIVER NEAR RUSCOM STATION,ON,ACTIVE,TRUE,42.2115,-82.62914,America/Toronto,-5,Etc/GMT+5
02GH003,CANARD RIVER NEAR LUKERVILLE,ON,ACTIVE,TRUE,42.15897,-83.01889,America/Toronto,-5,Etc/GMT+5
02GH011,LITTLE RIVER AT WINDSOR,ON,ACTIVE,TRUE,42.30986,-82.9285,America/Toronto,-5,Etc/GMT+5
02GH016,TURKEY CREEK AT SOUTH WINDSOR,ON,ACTIVE,TRUE,42.26408,-83.03242,America/Toronto,-5,Etc/GMT+5
02HA006,TWENTY MILE CREEK AT BALLS FALLS,ON,ACTIVE,TRUE,43.13347,-79.38325,America/Toronto,-5,Etc/GMT+5
02HA007,WELLAND RIVER BELOW CAISTOR CORNERS,ON,ACTIVE,TRUE,43.02178,-79.61802,America/Toronto,-5,Etc/GMT+5
02HA013,NIAGARA RIVER AT FORT ERIE,ON,ACTIVE,TRUE,42.93028,-78.91417,America/Toronto,-5,Etc/GMT+5
02HA014,REDHILL CREEK AT HAMILTON,ON,ACTIVE,TRUE,43.24097,-79.77389,America/Toronto,-5,Etc/GMT+5
02HA020,TWENTY MILE CREEK ABOVE SMITHVILLE,ON,ACTIVE,TRUE,43.11564,-79.56619,America/Toronto,-5,Etc/GMT+5
02HA024,OSWEGO CREEK AT CANBOROUGH,ON,ACTIVE,TRUE,42.99131,-79.67825,America/Toronto,-5,Etc/GMT+5
02HA030,FOUR MILE CREEK NEAR VIRGIL,ON,ACTIVE,TRUE,43.19561,-79.11333,America/Toronto,-5,Etc/GMT+5
02HA031,TWELVE MILE CREEK NEAR POWER GLEN,ON,ACTIVE,TRUE,43.11478,-79.27456,America/Toronto,-5,Etc/GMT+5
02HA032,NORTH CREEK NEAR SMITHVILLE,ON,ACTIVE,TRUE,43.07453,-79.525,America/Toronto,-5,Etc/GMT+5
02HB001,CREDIT RIVER NEAR CATARACT,ON,ACTIVE,TRUE,43.83586,-80.02289,America/Toronto,-5,Etc/GMT+5
02HB004,EAST SIXTEEN MILE CREEK NEAR OMAGH,ON,ACTIVE,TRUE,43.49917,-79.77678,America/Toronto,-5,Etc/GMT+5
02HB005,SIXTEEN MILE CREEK AT MILTON,ON,ACTIVE,TRUE,43.51389,-79.87972,America/Toronto,-5,Etc/GMT+5
02HB007,SPENCER CREEK AT DUNDAS,ON,ACTIVE,TRUE,43.26542,-79.96428,America/Toronto,-5,Etc/GMT+5
02HB008,CREDIT RIVER WEST BRANCH AT NORVAL,ON,ACTIVE,TRUE,43.64656,-79.86628,America/Toronto,-5,Etc/GMT+5
02HB011,BRONTE CREEK NEAR ZIMMERMAN,ON,ACTIVE,TRUE,43.43689,-79.86433,America/Toronto,-5,Etc/GMT+5
02HB012,GRINDSTONE CREEK NEAR ALDERSHOT,ON,ACTIVE,TRUE,43.30064,-79.869,America/Toronto,-5,Etc/GMT+5
02HB013,CREDIT RIVER NEAR ORANGEVILLE,ON,ACTIVE,TRUE,43.89127,-80.0624,America/Toronto,-5,Etc/GMT+5
02HB015,SPENCER CREEK NEAR WESTOVER,ON,ACTIVE,TRUE,43.35308,-80.07789,America/Toronto,-5,Etc/GMT+5
02HB018,CREDIT RIVER AT BOSTON MILLS,ON,ACTIVE,TRUE,43.77358,-79.92683,America/Toronto,-5,Etc/GMT+5
02HB020,CREDIT RIVER ERIN BRANCH ABOVE ERIN,ON,ACTIVE,TRUE,43.77181,-80.09364,America/Toronto,-5,Etc/GMT+5
02HB021,ANCASTER CREEK AT ANCASTER,ON,ACTIVE,TRUE,43.23117,-79.97386,America/Toronto,-5,Etc/GMT+5
02HB022,BRONTE CREEK AT CARLISLE,ON,ACTIVE,TRUE,43.38886,-79.98811,America/Toronto,-5,Etc/GMT+5
02HB023,SPENCER CREEK AT HIGHWAY NO. 5,ON,ACTIVE,TRUE,43.28292,-80.05281,America/Toronto,-5,Etc/GMT+5
02HB024,BLACK CREEK BELOW ACTON,ON,ACTIVE,TRUE,43.62931,-80.01042,America/Toronto,-5,Etc/GMT+5
02HB025,CREDIT RIVER AT NORVAL,ON,ACTIVE,TRUE,43.64758,-79.856,America/Toronto,-5,Etc/GMT+5
02HB027,FOURTEEN MILE CREEK AT OAKVILLE,ON,ACTIVE,TRUE,43.42145,-79.70315,America/Toronto,-5,Etc/GMT+5
02HB028,GRINDSTONE CREEK NEAR MILLGROVE,ON,ACTIVE,TRUE,43.33486,-79.94906,America/Toronto,-5,Etc/GMT+5
02HB029,CREDIT RIVER AT STREETSVILLE,ON,ACTIVE,TRUE,43.58228,-79.70875,America/Toronto,-5,Etc/GMT+5
02HB030,COOKSVILLE CREEK NEAR COOKSVILLE,ON,ACTIVE,TRUE,43.59233,-79.62389,America/Toronto,-5,Etc/GMT+5
02HB031,CREDIT RIVER ERIN BRANCH AT HILLSBURGH,ON,ACTIVE,TRUE,43.79025,-80.14344,America/Toronto,-5,Etc/GMT+5
02HB032,MOUNTSBERG CREEK BELOW MOUNTSBERG RESERVOIR,ON,ACTIVE,TRUE,43.45483,-80.04583,America/Toronto,-5,Etc/GMT+5
02HB033,MOUNTSBERG CREEK NEAR CARLISLE,ON,ACTIVE,TRUE,43.40153,-79.99303,America/Toronto,-5,Etc/GMT+5
02HC003,HUMBER RIVER AT WESTON,ON,ACTIVE,TRUE,43.69894,-79.52039,America/Toronto,-5,Etc/GMT+5
02HC005,DON RIVER WEST BRANCH AT YORK MILLS,ON,ACTIVE,TRUE,43.74025,-79.40314,America/Toronto,-5,Etc/GMT+5
02HC009,EAST HUMBER RIVER NEAR PINE GROVE,ON,ACTIVE,TRUE,43.79008,-79.58442,America/Toronto,-5,Etc/GMT+5
02HC013,HIGHLAND CREEK NEAR WEST HILL,ON,ACTIVE,TRUE,43.77819,-79.19147,America/Toronto,-5,Etc/GMT+5
02HC017,ETOBICOKE CREEK AT BRAMPTON,ON,ACTIVE,TRUE,43.69158,-79.75939,America/Toronto,-5,Etc/GMT+5
02HC018,LYNDE CREEK NEAR WHITBY,ON,ACTIVE,TRUE,43.8755,-78.96033,America/Toronto,-5,Etc/GMT+5
02HC019,DUFFINS CREEK ABOVE PICKERING,ON,ACTIVE,TRUE,43.89128,-79.05928,America/Toronto,-5,Etc/GMT+5
02HC022,ROUGE RIVER NEAR MARKHAM,ON,ACTIVE,TRUE,43.85836,-79.23356,America/Toronto,-5,Etc/GMT+5
02HC023,COLD CREEK NEAR BOLTON,ON,ACTIVE,TRUE,43.888,-79.71753,America/Toronto,-5,Etc/GMT+5
02HC024,DON RIVER AT TODMORDEN,ON,ACTIVE,TRUE,43.68586,-79.3615,America/Toronto,-5,Etc/GMT+5
02HC025,HUMBER RIVER AT ELDER MILLS,ON,ACTIVE,TRUE,43.81131,-79.62758,America/Toronto,-5,Etc/GMT+5
02HC027,BLACK CREEK NEAR WESTON,ON,ACTIVE,TRUE,43.67425,-79.50436,America/Toronto,-5,Etc/GMT+5
02HC028,LITTLE ROUGE CREEK NEAR LOCUST HILL,ON,ACTIVE,TRUE,43.90789,-79.21628,America/Toronto,-5,Etc/GMT+5
02HC030,ETOBICOKE CREEK BELOW QUEEN ELIZABETH HIGHWAY,ON,ACTIVE,TRUE,43.60175,-79.55633,America/Toronto,-5,Etc/GMT+5
02HC031,WEST HUMBER RIVER AT HIGHWAY NO. 7,ON,ACTIVE,TRUE,43.75836,-79.67894,America/Toronto,-5,Etc/GMT+5
02HC032,EAST HUMBER RIVER AT KING CREEK,ON,ACTIVE,TRUE,43.90278,-79.61278,America/Toronto,-5,Etc/GMT+5
02HC033,MIMICO CREEK AT ISLINGTON,ON,ACTIVE,TRUE,43.64736,-79.51969,America/Toronto,-5,Etc/GMT+5
02HC038,WEST DUFFINS CREEK ABOVE GREEN RIVER,ON,ACTIVE,TRUE,43.91575,-79.17953,America/Toronto,-5,Etc/GMT+5
02HC047,HUMBER RIVER NEAR PALGRAVE,ON,ACTIVE,TRUE,43.9285,-79.823,America/Toronto,-5,Etc/GMT+5
02HC049,DUFFINS CREEK AT AJAX,ON,ACTIVE,TRUE,43.84889,-79.05611,America/Toronto,-5,Etc/GMT+5
02HC051,CENTREVILLE CREEK NEAR ALBION,ON,ACTIVE,TRUE,43.92444,-79.83444,America/Toronto,-5,Etc/GMT+5
02HC053,LITTLE ROUGE RIVER NEAR DICKSONS HILL,ON,ACTIVE,TRUE,43.92569,-79.28219,America/Toronto,-5,Etc/GMT+5
02HC054,LYNDE CREEK AT BROOKLIN,ON,ACTIVE,TRUE,43.95908,-78.95997,America/Toronto,-5,Etc/GMT+5
02HC055,LYNDE CREEK TRIBUTARY NEAR KINSALE,ON,ACTIVE,TRUE,43.93197,-78.98847,America/Toronto,-5,Etc/GMT+5
02HC056,DON RIVER EAST BRANCH NEAR THORNHILL,ON,ACTIVE,TRUE,43.82661,-79.43808,America/Toronto,-5,Etc/GMT+5
02HC058,WEST HIGHLAND CREEK NEAR SCARBOROUGH VILLAGE,ON,ACTIVE,TRUE,43.75322,-79.23367,America/Toronto,-5,Etc/GMT+5
02HC059,HUMBER RIVER AT HIGHWAY NO. 9,ON,ACTIVE,TRUE,43.96877,-79.87374,America/Toronto,-5,Etc/GMT+5
02HD003,GANARASKA RIVER NEAR OSACA,ON,ACTIVE,TRUE,44.01514,-78.43747,America/Toronto,-5,Etc/GMT+5
02HD004,NORTH WEST GANARASKA RIVER NEAR OSACA,ON,ACTIVE,TRUE,44.01719,-78.43875,America/Toronto,-5,Etc/GMT+5
02HD006,BOWMANVILLE CREEK AT BOWMANVILLE,ON,ACTIVE,TRUE,43.92147,-78.702,America/Toronto,-5,Etc/GMT+5
02HD008,OSHAWA CREEK AT OSHAWA,ON,ACTIVE,TRUE,43.93031,-78.89153,America/Toronto,-5,Etc/GMT+5
02HD009,WILMOT CREEK NEAR NEWCASTLE,ON,ACTIVE,TRUE,43.93022,-78.61881,America/Toronto,-5,Etc/GMT+5
02HD010,SHELTER VALLEY BROOK NEAR GRAFTON,ON,ACTIVE,TRUE,43.99188,-78.00122,America/Toronto,-5,Etc/GMT+5
02HD012,GANARASKA RIVER ABOVE DALE,ON,ACTIVE,TRUE,43.99094,-78.32819,America/Toronto,-5,Etc/GMT+5
02HD013,HARMONY CREEK AT OSHAWA,ON,ACTIVE,TRUE,43.88886,-78.82494,America/Toronto,-5,Etc/GMT+5
02HD018,PROCTORS CREEK NEAR BRIGHTON,ON,ACTIVE,TRUE,44.05981,-77.74447,America/Toronto,-5,Etc/GMT+5
02HD019,COBOURG BROOK AT COBOURG,ON,ACTIVE,TRUE,43.96487,-78.18481,America/Toronto,-5,Etc/GMT+5
02HD020,BALTIMORE CREEK AT BALTIMORE,ON,ACTIVE,TRUE,44.02883,-78.14706,America/Toronto,-5,Etc/GMT+5
02HD021,WILMOT CREEK NEAR LESKARD,ON,ACTIVE,TRUE,44.00572,-78.64233,America/Toronto,-5,Etc/GMT+5
02HD022,COBOURG BROOK NEAR PRECIOUS CORNERS,ON,ACTIVE,TRUE,43.98843,-78.21065,America/Toronto,-5,Etc/GMT+5
02HD023,MACKIE CREEK NEAR HAMPTON,ON,ACTIVE,TRUE,43.97908,-78.68031,America/Toronto,-5,Etc/GMT+5
02HD024,GAGE CREEK NEAR DALE,ON,ACTIVE,TRUE,43.99703,-78.25433,America/Toronto,-5,Etc/GMT+5
02HE002,CONSECON CREEK AT ALLISONVILLE,ON,ACTIVE,TRUE,44.02747,-77.36694,America/Toronto,-5,Etc/GMT+5
02HE004,BLACK CREEK AT MILFORD,ON,ACTIVE,TRUE,43.93536,-77.09021,America/Toronto,-5,Etc/GMT+5
02HF002,GULL RIVER AT NORLAND,ON,ACTIVE,TRUE,44.73183,-78.81806,America/Toronto,-5,Etc/GMT+5
02HF003,BURNT RIVER NEAR BURNT RIVER,ON,ACTIVE,TRUE,44.70986,-78.67753,America/Toronto,-5,Etc/GMT+5
02HG001,MARIPOSA BROOK NEAR LITTLE BRITAIN,ON,ACTIVE,TRUE,44.28964,-78.84161,America/Toronto,-5,Etc/GMT+5
02HG002,NONQUON RIVER NEAR PORT PERRY,ON,ACTIVE,TRUE,44.08669,-79.00608,America/Toronto,-5,Etc/GMT+5
02HG003,BLACKSTOCK CREEK NEAR BLACKSTOCK,ON,ACTIVE,TRUE,44.13192,-78.82897,America/Toronto,-5,Etc/GMT+5
02HH003,PIGEON RIVER NEAR LOTUS,ON,ACTIVE,TRUE,44.12428,-78.69511,America/Toronto,-5,Etc/GMT+5
02HH005,PIGEON RIVER AT OMEMEE,ON,ACTIVE,TRUE,44.29918,-78.55619,America/Toronto,-5,Etc/GMT+5
02HJ001,JACKSON CREEK AT PETERBOROUGH,ON,ACTIVE,TRUE,44.30278,-78.32139,America/Toronto,-5,Etc/GMT+5
02HJ003,OUSE RIVER NEAR WESTWOOD,ON,ACTIVE,TRUE,44.29806,-78.04494,America/Toronto,-5,Etc/GMT+5
02HJ005,SQUIRREL CREEK NEAR BAILIEBORO,ON,ACTIVE,TRUE,44.12325,-78.38867,America/Toronto,-5,Etc/GMT+5
02HJ006,JACKSON CREEK NEAR JACKSON HEIGHTS,ON,ACTIVE,TRUE,44.30983,-78.37072,America/Toronto,-5,Etc/GMT+5
02HJ007,BAXTER CREEK AT MILLBROOK,ON,ACTIVE,TRUE,44.15028,-78.44672,America/Toronto,-5,Etc/GMT+5
02HJ008,INDIAN RIVER AT GILCHRIST BAY,ON,ACTIVE,TRUE,44.54047,-78.09536,America/Toronto,-5,Etc/GMT+5
02HK003,CROWE RIVER AT MARMORA,ON,ACTIVE,TRUE,44.48157,-77.6848,America/Toronto,-5,Etc/GMT+5
02HK005,CROWE RIVER NEAR GLEN ALDA,ON,ACTIVE,TRUE,44.84508,-77.92944,America/Toronto,-5,Etc/GMT+5
02HK006,BEAVER CREEK NEAR MARMORA,ON,ACTIVE,TRUE,44.53522,-77.69662,America/Toronto,-5,Etc/GMT+5
02HK007,COLD CREEK AT ORLAND,ON,ACTIVE,TRUE,44.13475,-77.78703,America/Toronto,-5,Etc/GMT+5
02HK008,RAWDON CREEK NEAR WEST HUNTINGDON,ON,ACTIVE,TRUE,44.33834,-77.47731,America/Toronto,-5,Etc/GMT+5
02HK009,BURNLEY CREEK ABOVE WARKWORTH,ON,ACTIVE,TRUE,44.19669,-77.9111,America/Toronto,-5,Etc/GMT+5
02HK010,TRENT RIVER AT TRENTON,ON,ACTIVE,TRUE,44.12377,-77.59181,America/Toronto,-5,Etc/GMT+5
02HK011,MAYHEW CREEK NEAR TRENTON,ON,ACTIVE,TRUE,44.10916,-77.61266,America/Toronto,-5,Etc/GMT+5
02HK015,SALT CREEK NEAR CODRINGTON,ON,ACTIVE,TRUE,44.19945,-77.81904,America/Toronto,-5,Etc/GMT+5
02HK016,TROUT CREEK NEAR CAMPBELLFORD,ON,ACTIVE,TRUE,44.30185,-77.83106,America/Toronto,-5,Etc/GMT+5
02HK017,HOARDS CREEK NEAR WELLMAN,ON,ACTIVE,TRUE,44.33176,-77.62841,America/Toronto,-5,Etc/GMT+5
02HL001,MOIRA RIVER NEAR FOXBORO,ON,ACTIVE,TRUE,44.25373,-77.41883,America/Toronto,-5,Etc/GMT+5
02HL003,BLACK RIVER NEAR ACTINOLITE,ON,ACTIVE,TRUE,44.5396,-77.36965,America/Toronto,-5,Etc/GMT+5
02HL004,SKOOTAMATTA RIVER NEAR ACTINOLITE,ON,ACTIVE,TRUE,44.54957,-77.32813,America/Toronto,-5,Etc/GMT+5
02HL005,MOIRA RIVER NEAR DELORO,ON,ACTIVE,TRUE,44.49973,-77.61836,America/Toronto,-5,Etc/GMT+5
02HL007,MOIRA RIVER NEAR TWEED,ON,ACTIVE,TRUE,44.48846,-77.31973,America/Toronto,-5,Etc/GMT+5
02HL008,CLARE RIVER NEAR BOGART,ON,ACTIVE,TRUE,44.49681,-77.22749,America/Toronto,-5,Etc/GMT+5
02HM002,DEPOT CREEK AT BELLROCK,ON,ACTIVE,TRUE,44.47192,-76.76236,America/Toronto,-5,Etc/GMT+5
02HM003,SALMON RIVER NEAR SHANNONVILLE,ON,ACTIVE,TRUE,44.20741,-77.20938,America/Toronto,-5,Etc/GMT+5
02HM004,WILTON CREEK NEAR NAPANEE,ON,ACTIVE,TRUE,44.23943,-76.84922,America/Toronto,-5,Etc/GMT+5
02HM005,COLLINS CREEK NEAR KINGSTON,ON,ACTIVE,TRUE,44.25656,-76.61256,America/Toronto,-5,Etc/GMT+5
02HM006,MILLHAVEN CREEK NEAR MILLHAVEN,ON,ACTIVE,TRUE,44.2264,-76.75909,America/Toronto,-5,Etc/GMT+5
02HM007,NAPANEE RIVER AT CAMDEN EAST,ON,ACTIVE,TRUE,44.33468,-76.83889,America/Toronto,-5,Etc/GMT+5
02HM009,WEST BRANCH LITTLE CATARAQUI CREEK AT KINGSTON,ON,ACTIVE,TRUE,44.24103,-76.57892,America/Toronto,-5,Etc/GMT+5
02HM010,SALMON RIVER AT TAMWORTH,ON,ACTIVE,TRUE,44.48623,-76.99296,America/Toronto,-5,Etc/GMT+5
02HM011,MILLHAVEN CREEK AT SYDENHAM,ON,ACTIVE,TRUE,44.41339,-76.59523,America/Toronto,-5,Etc/GMT+5
02JC008,BLANCHE RIVER ABOVE ENGLEHART,ON,ACTIVE,TRUE,47.88914,-79.87931,America/Toronto,-5,Etc/GMT+5
02JD013,BAY LAKE AT LATCHFORD,ON,ACTIVE,TRUE,47.32103,-79.812,America/Toronto,-5,Etc/GMT+5
02JD014,MONTREAL RIVER AT LATCHFORD,ON,ACTIVE,TRUE,47.32139,-79.81003,America/Toronto,-5,Etc/GMT+5
02JE011,LAKE TIMISKAMING AT HAILEYBURY,ON,ACTIVE,TRUE,47.45011,-79.62978,America/Toronto,-5,Etc/GMT+5
02JE013,OTTAWA RIVER AT MATTAWA,ON,ACTIVE,TRUE,46.32042,-78.71078,America/Toronto,-5,Etc/GMT+5
02JE024,OTTAWA RIVER BELOW TEMISCAMING,ON,ACTIVE,TRUE,46.70764,-79.10142,America/Toronto,-5,Etc/GMT+5
02JE025,TEMISCAMINGUE (LAC) A TEMISCAMING,QC,ACTIVE,TRUE,46.71844,-79.10503,America/Toronto,-5,Etc/GMT+5
02JE026,TEMISCAMINGUE (LAC) A VILLE-MARIE,QC,ACTIVE,TRUE,47.32931,-79.44461,America/Toronto,-5,Etc/GMT+5
02JE027,AMABLE DU FOND RIVER AT KIOSK,ON,ACTIVE,TRUE,46.0914,-78.88515,America/Toronto,-5,Etc/GMT+5
02JE028,NET CREEK BELOW NET LAKE,ON,ACTIVE,TRUE,47.0825,-79.73139,America/Toronto,-5,Etc/GMT+5
02JE032,OTTAWA RIVER AT THORNE,ON,ACTIVE,TRUE,46.70014,-79.09859,America/Toronto,-5,Etc/GMT+5
02KA015,AUMOND CREEK NEAR MATTAWA,ON,ACTIVE,TRUE,46.27614,-78.47875,America/Toronto,-5,Etc/GMT+5
02KB001,PETAWAWA RIVER NEAR PETAWAWA,ON,ACTIVE,TRUE,45.88619,-77.31531,America/Toronto,-5,Etc/GMT+5
02KC009,BONNECHERE RIVER NEAR CASTLEFORD,ON,ACTIVE,TRUE,45.49647,-76.56461,America/Toronto,-5,Etc/GMT+5
02KC015,MUSKRAT RIVER NEAR PEMBROKE,ON,ACTIVE,TRUE,45.79789,-77.10797,America/Toronto,-5,Etc/GMT+5
02KC018,INDIAN RIVER AT PEMBROKE,ON,ACTIVE,TRUE,45.81828,-77.12511,America/Toronto,-5,Etc/GMT+5
02KD002,YORK RIVER NEAR BANCROFT,ON,ACTIVE,TRUE,45.05214,-77.84603,America/Toronto,-5,Etc/GMT+5
02KD004,MADAWASKA RIVER AT PALMER RAPIDS,ON,ACTIVE,TRUE,45.32808,-77.5155,America/Toronto,-5,Etc/GMT+5
02KF001,MISSISSIPPI RIVER AT FERGUSONS FALLS,ON,ACTIVE,TRUE,45.05328,-76.28608,America/Toronto,-5,Etc/GMT+5
02KF005,OTTAWA RIVER AT BRITANNIA,ON,ACTIVE,TRUE,45.35125,-75.82666,America/Toronto,-5,Etc/GMT+5
02KF006,MISSISSIPPI RIVER AT APPLETON,ON,ACTIVE,TRUE,45.17633,-76.12347,America/Toronto,-5,Etc/GMT+5
02KF010,CLYDE RIVER NEAR LANARK,ON,ACTIVE,TRUE,45.04583,-76.40089,America/Toronto,-5,Etc/GMT+5
02KF011,CARP RIVER NEAR KINBURN,ON,ACTIVE,TRUE,45.41758,-76.19867,America/Toronto,-5,Etc/GMT+5
02KF012,INDIAN RIVER NEAR BLAKENEY,ON,ACTIVE,TRUE,45.24544,-76.26033,America/Toronto,-5,Etc/GMT+5
02KF013,CLYDE RIVER AT GORDON RAPIDS,ON,ACTIVE,TRUE,45.134,-76.62994,America/Toronto,-5,Etc/GMT+5
02KF015,GRAHAM CREEK AT NEPEAN,ON,ACTIVE,TRUE,45.34358,-75.80808,America/Toronto,-5,Etc/GMT+5
02KF016,MISSISSIPPI RIVER BELOW MARBLE LAKE,ON,ACTIVE,TRUE,44.84317,-77.12006,America/Toronto,-5,Etc/GMT+5
02KF017,BUCKSHOT CREEK NEAR PLEVNA,ON,ACTIVE,TRUE,44.96844,-76.96633,America/Toronto,-5,Etc/GMT+5
02KF018,FALL RIVER AT OUTLET OF BENNETT LAKE,ON,ACTIVE,TRUE,44.94781,-76.41083,America/Toronto,-5,Etc/GMT+5
02KF019,MISSISSIPPI RIVER AT OUTLET OF DALHOUSIE LAKE,ON,ACTIVE,TRUE,44.97194,-76.53875,America/Toronto,-5,Etc/GMT+5
02KF020,SHARBOT LAKE AT OUTLET OF SHARBOT LAKE,ON,ACTIVE,TRUE,44.77486,-76.64103,America/Toronto,-5,Etc/GMT+5
02LA004,RIDEAU RIVER AT OTTAWA,ON,ACTIVE,TRUE,45.3815,-75.69697,America/Toronto,-5,Etc/GMT+5
02LA006,KEMPTVILLE CREEK NEAR KEMPTVILLE,ON,ACTIVE,TRUE,44.99425,-75.66228,America/Toronto,-5,Etc/GMT+5
02LA007,JOCK RIVER NEAR RICHMOND,ON,ACTIVE,TRUE,45.24942,-75.79061,America/Toronto,-5,Etc/GMT+5
02LA015,OUTAOUAIS (RIVIERE DES) A HULL,QC,ACTIVE,TRUE,45.43142,-75.70617,America/Toronto,-5,Etc/GMT+5
02LA024,TAY RIVER IN PERTH,ON,ACTIVE,TRUE,44.89692,-76.2525,America/Toronto,-5,Etc/GMT+5
02LA027,RIDEAU RIVER ABOVE RIDEAU FALLS,ON,ACTIVE,TRUE,45.43992,-75.69294,America/Toronto,-5,Etc/GMT+5
02LA028,OTTAWA RIVER MAIN CHANNEL BELOW CHAUDIERE FALLS,ON,ACTIVE,TRUE,45.42103,-75.71811,America/Toronto,-5,Etc/GMT+5
02LB005,SOUTH NATION RIVER NEAR PLANTAGENET SPRINGS,ON,ACTIVE,TRUE,45.51694,-74.97822,America/Toronto,-5,Etc/GMT+5
02LB006,CASTOR RIVER AT RUSSELL,ON,ACTIVE,TRUE,45.2625,-75.34378,America/Toronto,-5,Etc/GMT+5
02LB007,SOUTH NATION RIVER AT SPENCERVILLE,ON,ACTIVE,TRUE,44.84225,-75.54442,America/Toronto,-5,Etc/GMT+5
02LB008,BEAR BROOK NEAR BOURGET,ON,ACTIVE,TRUE,45.426,-75.15322,America/Toronto,-5,Etc/GMT+5
02LB009,SOUTH NATION RIVER AT CHESTERVILLE,ON,ACTIVE,TRUE,45.10108,-75.22608,America/Toronto,-5,Etc/GMT+5
02LB013,SOUTH NATION RIVER AT CASSELMAN,ON,ACTIVE,TRUE,45.31697,-75.09167,America/Toronto,-5,Etc/GMT+5
02LB017,NORTH BRANCH SOUTH NATION RIVER NEAR HECKSTON,ON,ACTIVE,TRUE,44.99494,-75.51633,America/Toronto,-5,Etc/GMT+5
02LB018,WEST BRANCH SCOTCH RIVER NEAR ST. ISIDORE DE PRESCOTT,ON,ACTIVE,TRUE,45.37533,-74.948,America/Toronto,-5,Etc/GMT+5
02LB020,SOUTH CASTOR RIVER AT KENMORE,ON,ACTIVE,TRUE,45.22833,-75.41272,America/Toronto,-5,Etc/GMT+5
02LB022,PAYNE RIVER NEAR BERWICK,ON,ACTIVE,TRUE,45.19161,-75.10464,America/Toronto,-5,Etc/GMT+5
02LB031,SOUTH BRANCH SOUTH NATION RIVER NEAR WINCHESTER SPRINGS,ON,ACTIVE,TRUE,44.99794,-75.36208,America/Toronto,-5,Etc/GMT+5
02LB032,RIGAUD RIVER NEAR ST. EUGENE,ON,ACTIVE,TRUE,45.49142,-74.44181,America/Toronto,-5,Etc/GMT+5
02LB033,BECKETTS CREEK NEAR BECKETTS CREEK,ON,ACTIVE,TRUE,45.52075,-75.35833,America/Toronto,-5,Etc/GMT+5
02LB036,BECKETTS CREEK NEAR CUMBERLAND ESTATES,ON,ACTIVE,TRUE,45.50375,-75.34736,America/Toronto,-5,Etc/GMT+5
02MA001,LYNDHURST CREEK AT LYNDHURST,ON,ACTIVE,TRUE,44.54611,-76.12333,America/Toronto,-5,Etc/GMT+5
02MB006,LYN CREEK NEAR LYN,ON,ACTIVE,TRUE,44.525,-75.80528,America/Toronto,-5,Etc/GMT+5
02MB010,BUELLS CREEK AT BROCKVILLE,ON,ACTIVE,TRUE,44.58569,-75.69178,America/Toronto,-5,Etc/GMT+5
02MC001,RAISIN RIVER NEAR WILLIAMSTOWN,ON,ACTIVE,TRUE,45.15542,-74.63803,America/Toronto,-5,Etc/GMT+5
02MC005,SAINT-LAURENT (FLEUVE) A POINTE-DES-CASCADES,QC,ACTIVE,TRUE,45.33444,-73.96211,America/Toronto,-5,Etc/GMT+5
02MC026,RIVIERE BEAUDETTE NEAR GLEN NEVIS,ON,ACTIVE,TRUE,45.27336,-74.49383,America/Toronto,-5,Etc/GMT+5
02MC027,RAISIN RIVER AT BLACK RIVER,ON,ACTIVE,TRUE,45.08061,-74.868,America/Toronto,-5,Etc/GMT+5
02MC028,RIVIERE DELISLE NEAR ALEXANDRIA,ON,ACTIVE,TRUE,45.32708,-74.64383,America/Toronto,-5,Etc/GMT+5
02MC030,SOUTH RAISIN RIVER NEAR CORNWALL,ON,ACTIVE,TRUE,45.04883,-74.7705,America/Toronto,-5,Etc/GMT+5
02MC036,RIVIERE DELISLE NEAR GLEN NORMAN,ON,ACTIVE,TRUE,45.3175,-74.60139,America/Toronto,-5,Etc/GMT+5
02MC037,GARRY RIVER NEAR ALEXANDRIA,ON,ACTIVE,TRUE,45.3065,-74.63792,America/Toronto,-5,Etc/GMT+5
02OA003,MILLE ILES (RIVIERE DES) A BOIS-DES-FILION,QC,ACTIVE,TRUE,45.66294,-73.75216,America/Toronto,-5,Etc/GMT+5
02OA013,OUTAOUAIS (RIVIERE DES) A SAINTE-ANNE-DE-BELLEVUE,QC,ACTIVE,TRUE,45.40465,-73.95664,America/Toronto,-5,Etc/GMT+5
02OA016,SAINT-LAURENT (FLEUVE) A LASALLE,QC,ACTIVE,TRUE,45.41501,-73.62316,America/Toronto,-5,Etc/GMT+5
02OA033,OUTAOUAIS (RIVIERE DES) A LA MARINA DE SAINTE-ANNE-DE-BELLEVUE,QC,ACTIVE,TRUE,45.40249,-73.94879,America/Toronto,-5,Etc/GMT+5
02OA039,SAINT-LOUIS (LAC) A POINTE-CLAIRE,QC,ACTIVE,TRUE,45.42768,-73.82068,America/Toronto,-5,Etc/GMT+5
02OA041,SAINT-LAURENT (FLEUVE) A LA PRAIRIE,QC,ACTIVE,TRUE,45.46486,-73.50586,America/Toronto,-5,Etc/GMT+5
02OA107,OUTAOUAIS (RIVIERE DES) A TERRASSE-VAUDREUIL,QC,ACTIVE,TRUE,45.38906,-73.99811,America/Toronto,-5,Etc/GMT+5
02OAX03,MILLE ILES (RIVIERE DES) A BOIS-DES-FILION (JAUGE AUXILIAIRE),QC,ACTIVE,TRUE,45.66294,-73.75216,America/Toronto,-5,Etc/GMT+5
02OB011,SAINT-LAURENT (FLEUVE) A LANORAIE,QC,ACTIVE,TRUE,45.95941,-73.21459,America/Toronto,-5,Etc/GMT+5
02OE012,MEMPHREMAGOG (LAC) A MAGOG,QC,ACTIVE,TRUE,45.26754,-72.1615,America/Toronto,-5,Etc/GMT+5
02OH001,CHAMPLAIN (LAC) A PHILIPSBURG,QC,ACTIVE,TRUE,45.0398,-73.07965,America/Toronto,-5,Etc/GMT+5
02OJ007,RICHELIEU (RIVIERE) AUX RAPIDES FRYERS,QC,ACTIVE,TRUE,45.39847,-73.25844,America/Toronto,-5,Etc/GMT+5
02OJ016,RICHELIEU (RIVIERE) A LA MARINA DE SAINT-JEAN,QC,ACTIVE,TRUE,45.30231,-73.25012,America/Toronto,-5,Etc/GMT+5
02XA003,LITTLE MECATINA RIVER ABOVE LAC FOURMONT,NL,ACTIVE,TRUE,52.22981,-61.31694,America/Goose_Bay,-4,Etc/GMT+4
02YA002,BARTLETTS RIVER NEAR ST. ANTHONY,NL,ACTIVE,TRUE,51.44922,-55.64125,America/St_Johns,-3.5,Etc/GMT+3.5
02YC001,TORRENT RIVER AT BRISTOL'S POOL,NL,ACTIVE,TRUE,50.60747,-57.15161,America/St_Johns,-3.5,Etc/GMT+3.5
02YD002,NORTHEAST BROOK NEAR RODDICKTON,NL,ACTIVE,TRUE,50.92442,-56.11169,America/St_Johns,-3.5,Etc/GMT+3.5
02YE001,GREAVETT BROOK ABOVE PORTLAND CREEK POND,NL,ACTIVE,TRUE,50.16231,-57.57753,America/St_Johns,-3.5,Etc/GMT+3.5
02YF002,CAT ARM RESERVOIR NEAR SPILLWAY,NL,ACTIVE,TRUE,50.07561,-56.916,America/St_Johns,-3.5,Etc/GMT+3.5
02YG001,MAIN RIVER AT PARADISE POOL,NL,ACTIVE,TRUE,49.81067,-57.15942,America/St_Johns,-3.5,Etc/GMT+3.5
02YJ001,HARRYS RIVER BELOW HIGHWAY BRIDGE,NL,ACTIVE,TRUE,48.57583,-58.36264,America/St_Johns,-3.5,Etc/GMT+3.5
02YK002,LEWASEECHJEECH BROOK AT LITTLE GRAND LAKE,NL,ACTIVE,TRUE,48.62203,-57.93311,America/St_Johns,-3.5,Etc/GMT+3.5
02YK005,SHEFFIELD BROOK NEAR TRANS CANADA HIGHWAY,NL,ACTIVE,TRUE,49.33828,-56.66789,America/St_Johns,-3.5,Etc/GMT+3.5
02YK008,BOOT BROOK AT TRANS-CANADA HIGHWAY,NL,ACTIVE,TRUE,49.26667,-57.104,America/St_Johns,-3.5,Etc/GMT+3.5
02YK010,GRAND LAKE EAST OF GRAND LAKE BROOK,NL,ACTIVE,TRUE,48.66856,-58.08403,America/St_Johns,-3.5,Etc/GMT+3.5
02YL001,UPPER HUMBER RIVER NEAR REIDVILLE,NL,ACTIVE,TRUE,49.24292,-57.36025,America/St_Johns,-3.5,Etc/GMT+3.5
02YL003,HUMBER RIVER AT HUMBER VILLAGE BRIDGE,NL,ACTIVE,TRUE,48.98286,-57.76058,America/St_Johns,-3.5,Etc/GMT+3.5
02YL004,SOUTH BROOK AT PASADENA,NL,ACTIVE,TRUE,49.01228,-57.61142,America/St_Johns,-3.5,Etc/GMT+3.5
02YL005,RATTLER BROOK NEAR MCIVERS,NL,ACTIVE,TRUE,49.05831,-58.10519,America/St_Johns,-3.5,Etc/GMT+3.5
02YL007,DEER LAKE NEAR GENERATING STATION,NL,ACTIVE,TRUE,49.17014,-57.43825,America/St_Johns,-3.5,Etc/GMT+3.5
02YL008,UPPER HUMBER RIVER ABOVE BLACK BROOK,NL,ACTIVE,TRUE,49.61825,-57.2945,America/St_Johns,-3.5,Etc/GMT+3.5
02YL009,CORNER BROOK LAKE AT LAKE OUTLET,NL,ACTIVE,TRUE,48.84886,-57.85203,America/St_Johns,-3.5,Etc/GMT+3.5
02YL012,STEADY BROOK ABOVE CONFLUENCE TO HUMBER RIVER,NL,ACTIVE,TRUE,48.95319,-57.82775,America/St_Johns,-3.5,Etc/GMT+3.5
02YM003,SOUTH WEST BROOK NEAR BAIE VERTE,NL,ACTIVE,TRUE,49.89353,-56.22214,America/St_Johns,-3.5,Etc/GMT+3.5
02YM004,INDIAN BROOK DIVERSION ABOVE BIRCHY LAKE,NL,ACTIVE,TRUE,49.36725,-56.61519,America/St_Johns,-3.5,Etc/GMT+3.5
02YN002,LLOYDS RIVER BELOW KING GEORGE IV LAKE,NL,ACTIVE,TRUE,48.23981,-57.82814,America/St_Johns,-3.5,Etc/GMT+3.5
02YN004,STAR BROOK ABOVE STAR LAKE,NL,ACTIVE,TRUE,48.62731,-57.31136,America/St_Johns,-3.5,Etc/GMT+3.5
02YN005,VICTORIA LAKE AT NORTHEAST CONTROL STRUCTURE,NL,ACTIVE,TRUE,48.35733,-57.11508,America/St_Johns,-3.5,Etc/GMT+3.5
02YO006,PETERS RIVER NEAR BOTWOOD,NL,ACTIVE,TRUE,49.10383,-55.39669,America/St_Johns,-3.5,Etc/GMT+3.5
02YO008,GREAT RATTLING BROOK ABOVE TOTE RIVER CONFLUENCE,NL,ACTIVE,TRUE,48.82667,-55.52869,America/St_Johns,-3.5,Etc/GMT+3.5
02YO011,EXPLOITS RIVER BELOW NOEL PAULS BROOK,NL,ACTIVE,TRUE,48.84439,-56.26967,America/St_Johns,-3.5,Etc/GMT+3.5
02YO012,SOUTHWEST BROOK AT LEWISPORTE,NL,ACTIVE,TRUE,49.21608,-55.052,America/St_Johns,-3.5,Etc/GMT+3.5
02YO013,EXPLOITS RIVER AT BADGER,NL,ACTIVE,TRUE,48.97494,-56.03436,America/St_Johns,-3.5,Etc/GMT+3.5
02YO014,TRIBUTARY TO GILL'S POND BROOK,NL,ACTIVE,TRUE,48.64058,-56.52783,America/St_Johns,-3.5,Etc/GMT+3.5
02YO015,EAST POND BROOK BELOW EAST POND,NL,ACTIVE,TRUE,48.68211,-56.51014,America/St_Johns,-3.5,Etc/GMT+3.5
02YO016,EXPLOITS RIVER NEAR MILLERTOWN,NL,ACTIVE,TRUE,48.76008,-56.58242,America/St_Johns,-3.5,Etc/GMT+3.5
02YO017,RED INDIAN LAKE AT INDIAN POINT,NL,ACTIVE,TRUE,48.79508,-56.57647,America/St_Johns,-3.5,Etc/GMT+3.5
02YO018,EXPLOITS RIVER AT CHARLIE EDWARDS POINT,NL,ACTIVE,TRUE,48.94322,-55.79236,America/St_Johns,-3.5,Etc/GMT+3.5
02YQ001,GANDER RIVER AT BIG CHUTE,NL,ACTIVE,TRUE,49.01628,-54.85067,America/St_Johns,-3.5,Etc/GMT+3.5
02YQ005,SALMON RIVER NEAR GLENWOOD,NL,ACTIVE,TRUE,49.01128,-54.91689,America/St_Johns,-3.5,Etc/GMT+3.5
02YR001,MIDDLE BROOK NEAR GAMBO,NL,ACTIVE,TRUE,48.80739,-54.22256,America/St_Johns,-3.5,Etc/GMT+3.5
02YR003,INDIAN BAY BROOK NEAR NORTHWEST ARM,NL,ACTIVE,TRUE,49.04217,-53.88567,America/St_Johns,-3.5,Etc/GMT+3.5
02YR004,TRITON BROOK ABOVE GAMBO POND,NL,ACTIVE,TRUE,48.60392,-54.58606,America/St_Johns,-3.5,Etc/GMT+3.5
02YS003,SOUTHWEST BROOK AT TERRA NOVA NATIONAL PARK,NL,ACTIVE,TRUE,48.60772,-53.97889,America/St_Johns,-3.5,Etc/GMT+3.5
02YS005,TERRA NOVA RIVER AT GLOVERTOWN,NL,ACTIVE,TRUE,48.66275,-54.01525,America/St_Johns,-3.5,Etc/GMT+3.5
02YS006,NORTHWEST RIVER AT TERRA NOVA NATIONAL PARK,NL,ACTIVE,TRUE,48.397,-54.20042,America/St_Johns,-3.5,Etc/GMT+3.5
02ZA002,HIGHLANDS RIVER AT TRANS-CANADA HIGHWAY,NL,ACTIVE,TRUE,48.10839,-58.78358,America/St_Johns,-3.5,Etc/GMT+3.5
02ZB001,ISLE AUX MORTS RIVER BELOW HIGHWAY BRIDGE,NL,ACTIVE,TRUE,47.61333,-59.00978,America/St_Johns,-3.5,Etc/GMT+3.5
02ZC002,GRANDY BROOK BELOW TOP POND BROOK,NL,ACTIVE,TRUE,47.85608,-57.73319,America/St_Johns,-3.5,Etc/GMT+3.5
02ZC003,WHITE BEAR RIVER ABOVE BIG INDIAN BROOK,NL,ACTIVE,TRUE,47.80097,-57.276,America/St_Johns,-3.5,Etc/GMT+3.5
02ZC004,GRANITE LAKE AT EAST END,NL,ACTIVE,TRUE,48.18122,-56.93161,America/St_Johns,-3.5,Etc/GMT+3.5
02ZD002,GREY RIVER NEAR GREY RIVER,NL,ACTIVE,TRUE,47.74331,-56.934,America/St_Johns,-3.5,Etc/GMT+3.5
02ZD003,R.R. POND NEAR GRANITE LAKE,NL,ACTIVE,TRUE,48.19658,-56.79358,America/St_Johns,-3.5,Etc/GMT+3.5
02ZE004,CONNE RIVER AT OUTLET OF CONNE RIVER POND,NL,ACTIVE,TRUE,48.16875,-55.48281,America/St_Johns,-3.5,Etc/GMT+3.5
02ZF001,BAY DU NORD RIVER AT BIG FALLS,NL,ACTIVE,TRUE,47.74683,-55.44022,America/St_Johns,-3.5,Etc/GMT+3.5
02ZG001,GARNISH RIVER NEAR GARNISH,NL,ACTIVE,TRUE,47.21642,-55.33,America/St_Johns,-3.5,Etc/GMT+3.5
02ZG003,SALMONIER RIVER NEAR LAMALINE,NL,ACTIVE,TRUE,46.87781,-55.77619,America/St_Johns,-3.5,Etc/GMT+3.5
02ZG004,RATTLE BROOK NEAR BOAT HARBOUR,NL,ACTIVE,TRUE,47.45003,-54.85303,America/St_Johns,-3.5,Etc/GMT+3.5
02ZG006,OUTFLOW OF GREBES NEST POND,NL,ACTIVE,TRUE,46.90997,-55.46267,America/St_Johns,-3.5,Etc/GMT+3.5
02ZG007,OUTFLOW OF UNNAMED POND SOUTH OF LONG POND,NL,ACTIVE,TRUE,46.90389,-55.44361,America/St_Johns,-3.5,Etc/GMT+3.5
02ZH001,PIPERS HOLE RIVER AT MOTHERS BROOK,NL,ACTIVE,TRUE,47.94667,-54.28433,America/St_Johns,-3.5,Etc/GMT+3.5
02ZH002,COME BY CHANCE RIVER NEAR GOOBIES,NL,ACTIVE,TRUE,47.91875,-53.94867,America/St_Johns,-3.5,Etc/GMT+3.5
02ZJ001,SOUTHERN BAY RIVER NEAR SOUTHERN BAY,NL,ACTIVE,TRUE,48.38067,-53.67394,America/St_Johns,-3.5,Etc/GMT+3.5
02ZJ002,SALMON COVE RIVER NEAR CHAMPNEYS,NL,ACTIVE,TRUE,48.39592,-53.30161,America/St_Johns,-3.5,Etc/GMT+3.5
02ZJ003,SHOAL HARBOUR RIVER NEAR CLARENVILLE,NL,ACTIVE,TRUE,48.22017,-54.04964,America/St_Johns,-3.5,Etc/GMT+3.5
02ZK001,ROCKY RIVER NEAR COLINET,NL,ACTIVE,TRUE,47.22711,-53.56861,America/St_Johns,-3.5,Etc/GMT+3.5
02ZK002,NORTHEAST RIVER NEAR PLACENTIA,NL,ACTIVE,TRUE,47.27397,-53.83872,America/St_Johns,-3.5,Etc/GMT+3.5
02ZK003,LITTLE BARACHOIS RIVER NEAR PLACENTIA,NL,ACTIVE,TRUE,47.18131,-54.03892,America/St_Johns,-3.5,Etc/GMT+3.5
02ZK004,LITTLE SALMONIER RIVER NEAR NORTH HARBOUR,NL,ACTIVE,TRUE,47.12183,-53.73178,America/St_Johns,-3.5,Etc/GMT+3.5
02ZK006,RATTLING BROOK BELOW BRIDGE,NL,ACTIVE,TRUE,47.41419,-53.80733,America/St_Johns,-3.5,Etc/GMT+3.5
02ZK007,RATTLING BROOK BIG POND,NL,ACTIVE,TRUE,47.40161,-53.79497,America/St_Johns,-3.5,Etc/GMT+3.5
02ZK008,RATTLING BROOK BELOW PLANT DISCHARGE,NL,ACTIVE,TRUE,47.41861,-53.81011,America/St_Johns,-3.5,Etc/GMT+3.5
02ZL004,SHEARSTOWN BROOK AT SHEARSTOWN,NL,ACTIVE,TRUE,47.58306,-53.30808,America/St_Johns,-3.5,Etc/GMT+3.5
02ZL005,BIG BROOK AT LEAD COVE,NL,ACTIVE,TRUE,48.04278,-53.08211,America/St_Johns,-3.5,Etc/GMT+3.5
02ZM006,NORTHEAST POND RIVER AT NORTHEAST POND,NL,ACTIVE,TRUE,47.63464,-52.83656,America/St_Johns,-3.5,Etc/GMT+3.5
02ZM008,WATERFORD RIVER AT KILBRIDE,NL,ACTIVE,TRUE,47.52906,-52.74506,America/St_Johns,-3.5,Etc/GMT+3.5
02ZM009,SEAL COVE BROOK NEAR CAPPAHAYDEN,NL,ACTIVE,TRUE,46.84628,-52.97258,America/St_Johns,-3.5,Etc/GMT+3.5
02ZM016,SOUTH RIVER NEAR HOLYROOD,NL,ACTIVE,TRUE,47.35467,-53.11722,America/St_Johns,-3.5,Etc/GMT+3.5
02ZM018,VIRGINIA RIVER AT PLEASANTVILLE,NL,ACTIVE,TRUE,47.58894,-52.69078,America/St_Johns,-3.5,Etc/GMT+3.5
02ZM020,LEARYS BROOK AT PRINCE PHILIP DRIVE,NL,ACTIVE,TRUE,47.56425,-52.74847,America/St_Johns,-3.5,Etc/GMT+3.5
02ZN002,ST. SHOTTS RIVER NEAR TREPASSEY,NL,ACTIVE,TRUE,46.70989,-53.48558,America/St_Johns,-3.5,Etc/GMT+3.5
03NE001,REID BROOK AT OUTLET OF REID POND,NL,ACTIVE,TRUE,56.37314,-62.16144,America/Goose_Bay,-4,Etc/GMT+4
03NE002,CAMP POND BROOK BELOW CAMP POND,NL,ACTIVE,TRUE,56.34056,-62.11033,America/Goose_Bay,-4,Etc/GMT+4
03NE003,CAMP POND AT SOUTHWEST END,NL,ACTIVE,TRUE,56.33531,-62.09308,America/Goose_Bay,-4,Etc/GMT+4
03NE011,REID BROOK BELOW TRIBUTARY,NL,ACTIVE,TRUE,56.30506,-62.09256,America/Goose_Bay,-4,Etc/GMT+4
03NE012,TRIBUTARY TO REID BROOK,NL,ACTIVE,TRUE,56.30606,-62.09431,America/Goose_Bay,-4,Etc/GMT+4
03NF001,UGJOKTOK RIVER BELOW HARP LAKE,NL,ACTIVE,TRUE,55.23414,-61.30169,America/Goose_Bay,-4,Etc/GMT+4
03OA005,WABUSH LAKE AT LAKE OUTLET,NL,ACTIVE,TRUE,53.15167,-66.78544,America/Goose_Bay,-4,Etc/GMT+4
03OA012,LUCE BROOK BELOW TINTO POND,NL,ACTIVE,TRUE,52.98772,-66.87703,America/Goose_Bay,-4,Etc/GMT+4
03OA014,WABUSH LAKE AT DOLOMITE ROAD,NL,ACTIVE,TRUE,52.96681,-66.85922,America/Goose_Bay,-4,Etc/GMT+4
03OA015,FLORA CREEK BELOW TRANS LABRADOR HIGHWAY,NL,ACTIVE,TRUE,52.96336,-66.83672,America/Goose_Bay,-4,Etc/GMT+4
03OA016,DUMBELL STREAM ABOVE DUMBELL LAKE,NL,ACTIVE,TRUE,52.98611,-66.92011,America/Goose_Bay,-4,Etc/GMT+4
03OA017,PUMPHOUSE STREAM ABOVE DRUM LAKE,NL,ACTIVE,TRUE,52.97931,-66.95714,America/Goose_Bay,-4,Etc/GMT+4
03OB006,GOODREAM CREEK 2KM NORTHWEST OF TIMMINS 6,NL,ACTIVE,TRUE,54.91753,-67.124,America/Goose_Bay,-4,Etc/GMT+4
03OB007,ELROSS CREEK BELOW PINETTE LAKE INFLOW,NL,ACTIVE,TRUE,54.87775,-67.09972,America/Goose_Bay,-4,Etc/GMT+4
03OB009,JOAN BROOK BELOW OUTLET OF JOAN LAKE,NL,ACTIVE,TRUE,55.05928,-67.29992,America/Goose_Bay,-4,Etc/GMT+4
03OC003,ATIKONAK RIVER ABOVE PANCHIA LAKE,NL,ACTIVE,TRUE,52.96844,-64.66161,America/Goose_Bay,-4,Etc/GMT+4
03OD008,CHURCHILL RIVER ABOVE CHURCHILL FALLS TAILRACE,NL,ACTIVE,TRUE,53.52464,-64.11503,America/Goose_Bay,-4,Etc/GMT+4
03OD009,CHURCHILL RIVER BELOW METCHIN RIVER,NL,ACTIVE,TRUE,53.23956,-63.28492,America/Goose_Bay,-4,Etc/GMT+4
03OE011,PINUS RIVER,NL,ACTIVE,TRUE,53.14739,-61.55856,America/Goose_Bay,-4,Etc/GMT+4
03OE013,CHURCHILL RIVER ABOVE GRIZZLE RAPIDS,NL,ACTIVE,TRUE,52.97008,-61.44539,America/Goose_Bay,-4,Etc/GMT+4
03OE014,CHURCHILL RIVER 6.15 KMS BELOW LOWER MUSKRAT FALLS,NL,ACTIVE,TRUE,53.23758,-60.67525,America/Goose_Bay,-4,Etc/GMT+4
03OE015,CHURCHILL RIVER MID POOL,NL,ACTIVE,TRUE,53.24356,-60.77661,America/Goose_Bay,-4,Etc/GMT+4
03PC001,CHURCHILL RIVER ENGLISH POINT,NL,ACTIVE,TRUE,53.337,-60.17203,America/Goose_Bay,-4,Etc/GMT+4
03PD001,LAKE MELVILLE EAST OF LITTLE RIVER,NL,ACTIVE,TRUE,53.58947,-59.47883,America/Goose_Bay,-4,Etc/GMT+4
03QC001,EAGLE RIVER ABOVE FALLS,NL,ACTIVE,TRUE,53.53428,-57.49386,America/Goose_Bay,-4,Etc/GMT+4
03QC002,ALEXIS RIVER NEAR PORT HOPE SIMPSON,NL,ACTIVE,TRUE,52.64861,-56.87122,America/Goose_Bay,-4,Etc/GMT+4
04AA003,BACK LAKE NEAR OXFORD HOUSE,MB,ACTIVE,TRUE,54.94486,-95.24761,America/Winnipeg,-6,Etc/GMT+6
04AB001,HAYES RIVER BELOW GODS RIVER,MB,ACTIVE,TRUE,56.41667,-92.80917,America/Winnipeg,-6,Etc/GMT+6
04AD002,GODS RIVER NEAR SHAMATTAWA,MB,ACTIVE,TRUE,55.85036,-92.09486,America/Winnipeg,-6,Etc/GMT+6
04CA002,SEVERN RIVER AT OUTLET OF MUSKRAT DAM LAKE,ON,ACTIVE,TRUE,53.48947,-91.51022,America/Winnipeg,-6,Etc/GMT+6
04CA003,ROSEBERRY RIVER ABOVE ROSEBERRY LAKES,ON,ACTIVE,TRUE,52.65536,-92.51352,America/Winnipeg,-6,Etc/GMT+6
04CA004,SEVERN RIVER AT OUTLET OF DEER LAKE,ON,ACTIVE,TRUE,52.67395,-93.99134,America/Winnipeg,-6,Etc/GMT+6
04CA005,FLANAGAN RIVER AT OUTLET OF NORTH SPIRIT LAKE,ON,ACTIVE,TRUE,52.52675,-93.0532,America/Winnipeg,-6,Etc/GMT+6
04CB001,WINDIGO RIVER ABOVE MUSKRAT DAM LAKE,ON,ACTIVE,TRUE,53.35019,-91.79161,America/Winnipeg,-6,Etc/GMT+6
04DA001,PIPESTONE RIVER AT KARL LAKE,ON,ACTIVE,TRUE,52.58058,-90.18669,America/Winnipeg,-6,Etc/GMT+6
04DA002,WINISK RIVER AT KANUCHUAN RAPIDS,ON,ACTIVE,TRUE,52.95973,-87.68946,America/Toronto,-5,Etc/GMT+5
04DB001,ASHEWEIG RIVER AT STRAIGHT LAKE,ON,ACTIVE,TRUE,53.71175,-87.95339,America/Toronto,-5,Etc/GMT+5
04DC001,WINISK RIVER BELOW ASHEWEIG RIVER TRIBUTARY,ON,ACTIVE,TRUE,54.49961,-87.22769,America/Toronto,-5,Etc/GMT+5
04DC002,SHAMATTAWA RIVER AT OUTLET OF SHAMATTAWA LAKE,ON,ACTIVE,TRUE,54.28975,-85.65153,America/Toronto,-5,Etc/GMT+5
04EA001,EKWAN RIVER BELOW NORTH WASHAGAMI RIVER,ON,ACTIVE,TRUE,53.80611,-84.91808,America/Toronto,-5,Etc/GMT+5
04FA001,OTOSKWIN RIVER BELOW BADESDAWA LAKE,ON,ACTIVE,TRUE,51.82325,-89.60214,America/Toronto,-5,Etc/GMT+5
04FA002,KAWINOGANS RIVER NEAR PICKLE CROW,ON,ACTIVE,TRUE,51.64831,-89.88692,America/Toronto,-5,Etc/GMT+5
04FA003,PINEIMUTA RIVER AT EYES LAKE,ON,ACTIVE,TRUE,52.30828,-88.76033,America/Toronto,-5,Etc/GMT+5
04FB001,ATTAWAPISKAT RIVER BELOW ATTAWAPISKAT LAKE,ON,ACTIVE,TRUE,52.08578,-87.05639,America/Toronto,-5,Etc/GMT+5
04FC001,ATTAWAPISKAT RIVER BELOW MUKETEI RIVER,ON,ACTIVE,TRUE,53.09131,-85.07225,America/Toronto,-5,Etc/GMT+5
04FC002,ATTAWAPISKAT RIVER ABOVE LAWASHI CHANNEL,ON,ACTIVE,TRUE,52.93225,-83.36764,America/Toronto,-5,Etc/GMT+5
04FC003,MUKETEI RIVER NEAR OTOSKWIN-ATTAWAPISKAT RIVER PROVINCIAL PARK,ON,ACTIVE,TRUE,52.86667,-86.24056,America/Toronto,-5,Etc/GMT+5
04GA002,CAT RIVER BELOW WESLEYAN LAKE,ON,ACTIVE,TRUE,51.17378,-91.59458,America/Winnipeg,-6,Etc/GMT+6
04GA003,PASHKOKOGAN RIVER AT OUTLET OF PASHKOKOGAN LAKE,ON,ACTIVE,TRUE,51.0374,-90.19796,America/Toronto,-5,Etc/GMT+5
04GB004,OGOKI RIVER ABOVE WHITECLAY LAKE,ON,ACTIVE,TRUE,50.86842,-88.93161,America/Toronto,-5,Etc/GMT+5
04GB005,BRIGHTSAND RIVER AT MOBERLEY,ON,ACTIVE,TRUE,49.61131,-90.58081,America/Winnipeg,-6,Etc/GMT+6
04GC002,ALBANY RIVER BELOW ACHAPI LAKE,ON,ACTIVE,TRUE,51.36658,-89.42228,America/Toronto,-5,Etc/GMT+5
04GD001,ALBANY RIVER ABOVE NOTTIK ISLAND,ON,ACTIVE,TRUE,51.64153,-86.391,America/Toronto,-5,Etc/GMT+5
04HA001,ALBANY RIVER NEAR HAT ISLAND,ON,ACTIVE,TRUE,51.33056,-83.83333,America/Toronto,-5,Etc/GMT+5
04HA002,ALBANY RIVER ABOVE FISHING CREEK ISLAND,ON,ACTIVE,TRUE,51.85381,-82.97542,America/Toronto,-5,Etc/GMT+5
04HA003,STOOPING RIVER ABOVE THE MOUTH,ON,ACTIVE,TRUE,51.93056,-82.01553,America/Toronto,-5,Etc/GMT+5
04JC002,NAGAGAMI RIVER AT HIGHWAY NO. 11,ON,ACTIVE,TRUE,49.77289,-84.53694,America/Toronto,-5,Etc/GMT+5
04JD005,PAGWACHUAN RIVER AT HIGHWAY NO. 11,ON,ACTIVE,TRUE,49.76419,-85.22619,America/Toronto,-5,Etc/GMT+5
04JD006,KENOGAMISIS LAKE NEAR GERALDTON,ON,ACTIVE,TRUE,49.69208,-86.88125,America/Toronto,-5,Etc/GMT+5
04JF001,LITTLE CURRENT RIVER AT PERCY LAKE,ON,ACTIVE,TRUE,50.66119,-86.53625,America/Toronto,-5,Etc/GMT+5
04JG001,KENOGAMI RIVER NEAR MAMMAMATTAWA,ON,ACTIVE,TRUE,50.42286,-84.38153,America/Toronto,-5,Etc/GMT+5
04KA001,KWETABOHIGAN RIVER NEAR THE MOUTH,ON,ACTIVE,TRUE,51.16083,-80.86394,America/Toronto,-5,Etc/GMT+5
04LA002,MATTAGAMI RIVER NEAR TIMMINS,ON,ACTIVE,TRUE,48.40431,-81.44836,America/Toronto,-5,Etc/GMT+5
04LA003,TATACHIKAPIKA RIVER NEAR TIMMINS,ON,ACTIVE,TRUE,48.32972,-81.58017,America/Toronto,-5,Etc/GMT+5
04LA004,MOUNTJOY RIVER NEAR TIMMINS,ON,ACTIVE,TRUE,48.34506,-81.33264,America/Toronto,-5,Etc/GMT+5
04LA005,MINISINAKWA RIVER NEAR GOGAMA,ON,ACTIVE,TRUE,47.71519,-81.61261,America/Toronto,-5,Etc/GMT+5
04LA006,MOLLIE RIVER AT HIGHWAY NO. 144,ON,ACTIVE,TRUE,47.49611,-81.84878,America/Toronto,-5,Etc/GMT+5
04LB002,KAMISKOTIA RIVER ABOVE ENID CREEK,ON,ACTIVE,TRUE,48.62664,-81.63033,America/Toronto,-5,Etc/GMT+5
04LC002,IVANHOE LAKE NEAR FOLEYET,ON,ACTIVE,TRUE,48.18275,-82.50111,America/Toronto,-5,Etc/GMT+5
04LC003,IVANHOE RIVER AT FOLEYET,ON,ACTIVE,TRUE,48.25021,-82.44381,America/Toronto,-5,Etc/GMT+5
04LD001,GROUNDHOG RIVER AT FAUQUIER,ON,ACTIVE,TRUE,49.31084,-82.04143,America/Toronto,-5,Etc/GMT+5
04LE002,NEMEGOSENDA RIVER NEAR CHAPLEAU,ON,ACTIVE,TRUE,47.93817,-83.06069,America/Toronto,-5,Etc/GMT+5
04LF001,KAPUSKASING RIVER AT KAPUSKASING,ON,ACTIVE,TRUE,49.41442,-82.439940000000007,America/Toronto,-5,Etc/GMT+5
04LG004,MOOSE RIVER ABOVE MOOSE RIVER,ON,ACTIVE,TRUE,50.75158,-81.45139,America/Toronto,-5,Etc/GMT+5
04LJ001,MISSINAIBI RIVER AT MATTICE,ON,ACTIVE,TRUE,49.61392,-83.26667,America/Toronto,-5,Etc/GMT+5
04LK001,MATTAWISHKWIA RIVER AT HEARST,ON,ACTIVE,TRUE,49.68281,-83.6568,America/Toronto,-5,Etc/GMT+5
04LM001,MISSINAIBI RIVER BELOW WABOOSE RIVER,ON,ACTIVE,TRUE,50.58544,-82.091,America/Toronto,-5,Etc/GMT+5
04MB002,DRIFTWOOD RIVER AT MONTEITH,ON,ACTIVE,TRUE,48.64457,-80.67467,America/Toronto,-5,Etc/GMT+5
04MB005,WATABEAG LAKE AT WATABEAG LAKE DAM,ON,ACTIVE,TRUE,48.29289,-80.54489,America/Toronto,-5,Etc/GMT+5
04MD004,PORCUPINE RIVER AT HOYLE,ON,ACTIVE,TRUE,48.55014,-81.05431,America/Toronto,-5,Etc/GMT+5
04MD005,PORCUPINE LAKE NEAR PORCUPINE,ON,ACTIVE,TRUE,48.47833,-81.19025,America/Toronto,-5,Etc/GMT+5
04ME003,ABITIBI RIVER AT ONAKAWANA,ON,ACTIVE,TRUE,50.60292,-81.41464,America/Toronto,-5,Etc/GMT+5
04ME005,NEWPOST CREEK NEAR THE MOUTH,ON,ACTIVE,TRUE,49.97203,-81.51203,America/Toronto,-5,Etc/GMT+5
04MF001,NORTH FRENCH RIVER NEAR THE MOUTH,ON,ACTIVE,TRUE,51.07672,-80.76408,America/Toronto,-5,Etc/GMT+5
05AA004,PINCHER CREEK AT PINCHER CREEK,AB,ACTIVE,TRUE,49.4864,-113.94769,America/Edmonton,-7,Etc/GMT+7
05AA008,CROWSNEST RIVER AT FRANK,AB,ACTIVE,TRUE,49.59732,-114.41064,America/Edmonton,-7,Etc/GMT+7
05AA011,MILL CREEK NEAR THE MOUTH,AB,ACTIVE,TRUE,49.46951,-114.13424,America/Edmonton,-7,Etc/GMT+7
05AA022,CASTLE RIVER NEAR BEAVER MINES,AB,ACTIVE,TRUE,49.48866,-114.14438,America/Edmonton,-7,Etc/GMT+7
05AA024,OLDMAN RIVER NEAR BROCKET,AB,ACTIVE,TRUE,49.55781,-113.82272,America/Edmonton,-7,Etc/GMT+7
05AA027,RACEHORSE CREEK NEAR THE MOUTH,AB,ACTIVE,TRUE,49.83779,-114.42059,America/Edmonton,-7,Etc/GMT+7
05AA028,CASTLE RIVER AT RANGER STATION,AB,ACTIVE,TRUE,49.39745,-114.3399,America/Edmonton,-7,Etc/GMT+7
05AA030,GOLD CREEK NEAR FRANK,AB,ACTIVE,TRUE,49.60185,-114.40054,America/Edmonton,-7,Etc/GMT+7
05AA032,OLDMAN RESERVOIR NEAR PINCHER CREEK,AB,ACTIVE,TRUE,49.61204,-114.05328,America/Edmonton,-7,Etc/GMT+7
05AA033,KETTLES CREEK AT PINCHER CREEK,AB,ACTIVE,TRUE,49.49232,-113.92651,America/Edmonton,-7,Etc/GMT+7
05AA034,PINCHER CREEK AT FRONT RANGE ROAD,AB,ACTIVE,TRUE,49.30934,-114.0751,America/Edmonton,-7,Etc/GMT+7
05AA035,OLDMAN RIVER AT RANGE ROAD NO. 13A,AB,ACTIVE,TRUE,49.72769,-114.08649,America/Edmonton,-7,Etc/GMT+7
05AB005,TROUT CREEK NEAR GRANUM,AB,ACTIVE,TRUE,49.97735,-113.68603,America/Edmonton,-7,Etc/GMT+7
05AB019,LETHBRIDGE NORTHERN IRRIGATION DISTRICT CANAL ABOVE OLDMAN FLUME,AB,ACTIVE,TRUE,49.68706,-113.57692,America/Edmonton,-7,Etc/GMT+7
05AB021,WILLOW CREEK NEAR CLARESHOLM,AB,ACTIVE,TRUE,50.01852,-113.71484,America/Edmonton,-7,Etc/GMT+7
05AB029,MEADOW CREEK NEAR THE MOUTH,AB,ACTIVE,TRUE,49.95413,-113.66354,America/Edmonton,-7,Etc/GMT+7
05AB037,CHAIN LAKES RESERVOIR NEAR NANTON,AB,ACTIVE,TRUE,50.20184,-114.19006,America/Edmonton,-7,Etc/GMT+7
05AB040,WILLOW CREEK AT SECONDARY NO. 532,AB,ACTIVE,TRUE,50.24177,-114.35117,America/Edmonton,-7,Etc/GMT+7
05AB041,WILLOW CREEK AT OXLY RANCH,AB,ACTIVE,TRUE,50.1291,-113.84663,America/Edmonton,-7,Etc/GMT+7
05AB042,PINE COULEE DIVERSION CANAL BELOW HEAD GATES,AB,ACTIVE,TRUE,50.128,-113.78713,America/Edmonton,-7,Etc/GMT+7
05AB044,PINE COULEE RESERVOIR NEAR STAVELY,AB,ACTIVE,TRUE,50.12167,-113.74902,America/Edmonton,-7,Etc/GMT+7
05AB045,PINE COULEE OUTFLOW BELOW RESERVOIR,AB,ACTIVE,TRUE,50.12018,-113.75108,America/Edmonton,-7,Etc/GMT+7
05AC003,LITTLE BOW RIVER AT CARMANGAY,AB,ACTIVE,TRUE,50.12765,-113.11819,America/Edmonton,-7,Etc/GMT+7
05AC012,LITTLE BOW RIVER BELOW TRAVERS DAM,AB,ACTIVE,TRUE,50.1712,-112.72277,America/Edmonton,-7,Etc/GMT+7
05AC017,LOMOND LATERAL NEAR HEADGATE,AB,ACTIVE,TRUE,50.21455,-112.66189,America/Edmonton,-7,Etc/GMT+7
05AC023,LITTLE BOW RIVER NEAR THE MOUTH,AB,ACTIVE,TRUE,49.89987,-112.50553,America/Edmonton,-7,Etc/GMT+7
05AC030,SNAKE CREEK NEAR VULCAN,AB,ACTIVE,TRUE,50.47247,-112.91402,America/Edmonton,-7,Etc/GMT+7
05AC031,MOSQUITO CREEK NEAR THE MOUTH,AB,ACTIVE,TRUE,50.25185,-113.55414,America/Edmonton,-7,Etc/GMT+7
05AD003,WATERTON RIVER NEAR WATERTON PARK,AB,ACTIVE,TRUE,49.11366,-113.8394,America/Edmonton,-7,Etc/GMT+7
05AD005,BELLY RIVER NEAR MOUNTAIN VIEW,AB,ACTIVE,TRUE,49.0996,-113.69772,America/Edmonton,-7,Etc/GMT+7
05AD007,OLDMAN RIVER NEAR LETHBRIDGE,AB,ACTIVE,TRUE,49.70942,-112.86288,America/Edmonton,-7,Etc/GMT+7
05AD010,DRYWOOD CREEK NEAR THE MOUTH,AB,ACTIVE,TRUE,49.29441,-113.79424,America/Edmonton,-7,Etc/GMT+7
05AD013,UNITED IRRIGATION DISTRICT CANAL NEAR HILL SPRING,AB,ACTIVE,TRUE,49.21804,-113.63324,America/Edmonton,-7,Etc/GMT+7
05AD017,MOUNTAIN VIEW IRRIGATION DISTRICT CANAL,AB,ACTIVE,TRUE,49.07972,-113.68889,America/Edmonton,-7,Etc/GMT+7
05AD021,BELLY - ST. MARY DIVERSION CANAL,AB,ACTIVE,TRUE,49.33607,-113.55406,America/Edmonton,-7,Etc/GMT+7
05AD025,WATERTON LAKE AT WATERTON PARK,AB,ACTIVE,TRUE,49.0536,-113.90705,America/Edmonton,-7,Etc/GMT+7
05AD026,WATERTON RESERVOIR,AB,ACTIVE,TRUE,49.32023,-113.68416,America/Edmonton,-7,Etc/GMT+7
05AD027,WATERTON - BELLY DIVERSION CANAL,AB,ACTIVE,TRUE,49.32703,-113.63383,America/Edmonton,-7,Etc/GMT+7
05AD028,WATERTON RIVER NEAR GLENWOOD,AB,ACTIVE,TRUE,49.43336,-113.48478,America/Edmonton,-7,Etc/GMT+7
05AD035,PRAIRIE BLOOD COULEE NEAR LETHBRIDGE,AB,ACTIVE,TRUE,49.56628,-112.95427,America/Edmonton,-7,Etc/GMT+7
05AD037,PIYAMI DRAIN NEAR PICTURE BUTTE,AB,ACTIVE,TRUE,49.83062,-112.76438,America/Edmonton,-7,Etc/GMT+7
05AD041,BELLY RIVER NEAR GLENWOOD,AB,ACTIVE,TRUE,49.35212,-113.48044,America/Edmonton,-7,Etc/GMT+7
05AD042,YARROW CREEK AT SPREAD EAGLE ROAD,AB,ACTIVE,TRUE,49.23194,-113.96078,America/Edmonton,-7,Etc/GMT+7
05AE002,LEE CREEK AT CARDSTON,AB,ACTIVE,TRUE,49.19971,-113.29652,America/Edmonton,-7,Etc/GMT+7
05AE005,ROLPH CREEK NEAR KIMBALL,AB,ACTIVE,TRUE,49.12501,-113.14256,America/Edmonton,-7,Etc/GMT+7
05AE006,ST. MARY RIVER NEAR LETHBRIDGE,AB,ACTIVE,TRUE,49.57346,-112.84671,America/Edmonton,-7,Etc/GMT+7
05AE016,POTHOLE CREEK AT RUSSELL'S RANCH,AB,ACTIVE,TRUE,49.56554,-112.82741,America/Edmonton,-7,Etc/GMT+7
05AE021,MAGRATH IRRIGATION DISTRICT CANAL NEAR SPRING COULEE,AB,ACTIVE,TRUE,49.34839,-113.05515,America/Edmonton,-7,Etc/GMT+7
05AE025,ST. MARY RESERVOIR NEAR SPRING COULEE,AB,ACTIVE,TRUE,49.36305,-113.11456,America/Edmonton,-7,Etc/GMT+7
05AE026,CANADIAN ST. MARY CANAL NEAR SPRING COULEE,AB,ACTIVE,TRUE,49.34363,-113.04353,America/Edmonton,-7,Etc/GMT+7
05AE043,ST. MARY RIVER AT HIGHWAY NO. 501,AB,ACTIVE,TRUE,49.09184,-113.22089,America/Edmonton,-7,Etc/GMT+7
05AF030,MILK RIVER RIDGE RESERVOIR,AB,ACTIVE,TRUE,49.38129,-112.59025,America/Edmonton,-7,Etc/GMT+7
05AF033,MANYBERRIES CREEK AT RANGE ROAD NO. 63,AB,ACTIVE,TRUE,49.3189,-110.7456,America/Edmonton,-7,Etc/GMT+7
05AF034,MANYBERRIES CREEK AT HIGHWAY NO. 889,AB,ACTIVE,TRUE,49.39369,-110.67849,America/Edmonton,-7,Etc/GMT+7
05AG003,EXPANSE COULEE NEAR THE MOUTH,AB,ACTIVE,TRUE,49.98871,-112.08224,America/Edmonton,-7,Etc/GMT+7
05AG006,OLDMAN RIVER NEAR THE MOUTH,AB,ACTIVE,TRUE,49.91889,-111.8,America/Edmonton,-7,Etc/GMT+7
05AG026,BOUNTIFUL COULEE INFLOW NEAR CRANFORD,AB,ACTIVE,TRUE,49.78561,-112.31609,America/Edmonton,-7,Etc/GMT+7
05AH002,MACKAY CREEK AT WALSH,AB,ACTIVE,TRUE,49.94091,-110.04722,America/Edmonton,-7,Etc/GMT+7
05AH005,SEVEN PERSONS CREEK AT MEDICINE HAT,AB,ACTIVE,TRUE,50.02365,-110.68351,America/Edmonton,-7,Etc/GMT+7
05AH025,ELKWATER LAKE AT ELKWATER,AB,ACTIVE,TRUE,49.66198,-110.28902,America/Edmonton,-7,Etc/GMT+7
05AH037,GROS VENTRE CREEK NEAR DUNMORE,AB,ACTIVE,TRUE,49.88778,-110.50711,America/Edmonton,-7,Etc/GMT+7
05AH041,PEIGAN CREEK NEAR PAKOWKI ROAD,AB,ACTIVE,TRUE,49.5805,-110.9437,America/Edmonton,-7,Etc/GMT+7
05AH043,EAST MCALPINE CREEK NEAR ELKWATER LAKE,AB,ACTIVE,TRUE,49.79457,-110.18655,America/Edmonton,-7,Etc/GMT+7
05AH047,SAM LAKE TRIBUTARY NEAR SCHULER,AB,ACTIVE,TRUE,50.16348,-110.25759,America/Edmonton,-7,Etc/GMT+7
05AH048,CAVAN LAKE NEAR DUNMORE,AB,ACTIVE,TRUE,49.94392,-110.40067,America/Edmonton,-7,Etc/GMT+7
05AH050,BOXELDER CREEK AT HARGRAVE'S RANCH,SK,ACTIVE,TRUE,50.01198,-109.98701,America/Regina,-6,Etc/GMT+6
05AH052,ROSS CREEK AT HIGHWAY NO. 41,AB,ACTIVE,TRUE,50.00557,-110.53291,America/Edmonton,-7,Etc/GMT+7
05AH053,BULLSHEAD CREEK AT BLACK AND WHITE TRAIL,AB,ACTIVE,TRUE,49.91599,-110.64836,America/Edmonton,-7,Etc/GMT+7
05AH054,CYPRESS VIEW RESERVOIR NEAR ELKWATER,AB,ACTIVE,TRUE,49.80078,-110.12886,America/Edmonton,-7,Etc/GMT+7
05AH055,MCALPINE CREEK RESERVOIR NEAR ELKWATER,AB,ACTIVE,TRUE,49.70875,-110.16249,America/Edmonton,-7,Etc/GMT+7
05AH056,MACKAY CREEK RESERVOIR NEAR ELKWATER,AB,ACTIVE,TRUE,49.71534,-110.12849,America/Edmonton,-7,Etc/GMT+7
05AH057,BULLSHEAD RESERVOIR NEAR ELKWATER,AB,ACTIVE,TRUE,49.67757,-110.51437,America/Edmonton,-7,Etc/GMT+7
05AH058,SPRUCE COULEE RESERVOIR NEAR ELKWATER,AB,ACTIVE,TRUE,49.67929,-110.18288,America/Edmonton,-7,Etc/GMT+7
05AJ001,SOUTH SASKATCHEWAN RIVER AT MEDICINE HAT,AB,ACTIVE,TRUE,50.04209,-110.67754,America/Edmonton,-7,Etc/GMT+7
05BA001,BOW RIVER AT LAKE LOUISE,AB,ACTIVE,TRUE,51.4286,-116.18894,America/Edmonton,-7,Etc/GMT+7
05BA002,PIPESTONE RIVER NEAR LAKE LOUISE,AB,ACTIVE,TRUE,51.43311,-116.17495,America/Edmonton,-7,Etc/GMT+7
05BB001,BOW RIVER AT BANFF,AB,ACTIVE,TRUE,51.17223,-115.57177,America/Edmonton,-7,Etc/GMT+7
05BC001,SPRAY RIVER AT BANFF,AB,ACTIVE,TRUE,51.16018,-115.55447,America/Edmonton,-7,Etc/GMT+7
05BG006,WAIPAROUS CREEK NEAR THE MOUTH,AB,ACTIVE,TRUE,51.28281,-114.83841,America/Edmonton,-7,Etc/GMT+7
05BG010,GHOST RIVER ABOVE WAIPAROUS CREEK,AB,ACTIVE,TRUE,51.27003,-114.92553,America/Edmonton,-7,Etc/GMT+7
05BH004,BOW RIVER AT CALGARY,AB,ACTIVE,TRUE,51.05027,-114.05146,America/Edmonton,-7,Etc/GMT+7
05BH005,BOW RIVER NEAR COCHRANE,AB,ACTIVE,TRUE,51.17374,-114.46643,America/Edmonton,-7,Etc/GMT+7
05BH013,JUMPINGPOUND CREEK NEAR COX HILL,AB,ACTIVE,TRUE,51.00233,-114.93814,America/Edmonton,-7,Etc/GMT+7
05BH014,NOSE CREEK ABOVE AIRDRIE,AB,ACTIVE,TRUE,51.31191,-114.02759,America/Edmonton,-7,Etc/GMT+7
05BH015,JUMPINGPOUND CREEK AT TOWNSHIP ROAD NO. 252,AB,ACTIVE,TRUE,51.12831,-114.5675,America/Edmonton,-7,Etc/GMT+7
05BH016,WEST NOSE CREEK AT CALGARY,AB,ACTIVE,TRUE,51.19012,-114.14123,America/Edmonton,-7,Etc/GMT+7
05BJ001,ELBOW RIVER BELOW GLENMORE DAM,AB,ACTIVE,TRUE,51.01279,-114.0932,America/Edmonton,-7,Etc/GMT+7
05BJ004,ELBOW RIVER AT BRAGG CREEK,AB,ACTIVE,TRUE,50.94893,-114.57095,America/Edmonton,-7,Etc/GMT+7
05BJ010,ELBOW RIVER AT SARCEE BRIDGE,AB,ACTIVE,TRUE,50.92688,-114.16972,America/Edmonton,-7,Etc/GMT+7
05BK001,FISH CREEK NEAR PRIDDIS,AB,ACTIVE,TRUE,50.88547,-114.32684,America/Edmonton,-7,Etc/GMT+7
05BL004,HIGHWOOD RIVER BELOW LITTLE BOW CANAL,AB,ACTIVE,TRUE,50.58563,-113.86936,America/Edmonton,-7,Etc/GMT+7
05BL007,STIMSON CREEK NEAR PEKISKO,AB,ACTIVE,TRUE,50.43012,-114.167,America/Edmonton,-7,Etc/GMT+7
05BL012,SHEEP RIVER AT OKOTOKS,AB,ACTIVE,TRUE,50.72389,-113.97347,America/Edmonton,-7,Etc/GMT+7
05BL013,THREEPOINT CREEK NEAR MILLARVILLE,AB,ACTIVE,TRUE,50.77113,-114.27874,America/Edmonton,-7,Etc/GMT+7
05BL014,SHEEP RIVER AT BLACK DIAMOND,AB,ACTIVE,TRUE,50.68855,-114.24491,America/Edmonton,-7,Etc/GMT+7
05BL015,LITTLE BOW CANAL AT HIGH RIVER,AB,ACTIVE,TRUE,50.5831,-113.86995,America/Edmonton,-7,Etc/GMT+7
05BL019,HIGHWOOD RIVER AT DIEBEL'S RANCH,AB,ACTIVE,TRUE,50.40506,-114.50072,America/Edmonton,-7,Etc/GMT+7
05BL022,CATARACT CREEK NEAR FORESTRY ROAD,AB,ACTIVE,TRUE,50.28526,-114.58871,America/Edmonton,-7,Etc/GMT+7
05BL023,PEKISKO CREEK NEAR LONGVIEW,AB,ACTIVE,TRUE,50.47409,-114.2073,America/Edmonton,-7,Etc/GMT+7
05BL024,HIGHWOOD RIVER NEAR THE MOUTH,AB,ACTIVE,TRUE,50.78324,-113.82085,America/Edmonton,-7,Etc/GMT+7
05BL025,HIGHWOOD DIVERSION CANAL NEAR HEADGATES,AB,ACTIVE,TRUE,50.55213,-113.98988,America/Edmonton,-7,Etc/GMT+7
05BL027,TRAP CREEK NEAR LONGVIEW,AB,ACTIVE,TRUE,50.47732,-114.42632,America/Edmonton,-7,Etc/GMT+7
05BM002,BOW RIVER BELOW CARSELAND DAM,AB,ACTIVE,TRUE,50.82282,-113.44483,America/Edmonton,-7,Etc/GMT+7
05BM004,BOW RIVER BELOW BASSANO DAM,AB,ACTIVE,TRUE,50.75018,-112.54225,America/Edmonton,-7,Etc/GMT+7
05BM008,CROWFOOT CREEK NEAR CLUNY,AB,ACTIVE,TRUE,50.83462,-112.76305,America/Edmonton,-7,Etc/GMT+7
05BM014,WEST ARROWWOOD CREEK NEAR ARROWWOOD,AB,ACTIVE,TRUE,50.76404,-113.23631,America/Edmonton,-7,Etc/GMT+7
05BM015,WESTERN IRRIGATION DISTRICT CANAL NEAR HEADGATES,AB,ACTIVE,TRUE,51.04423,-114.00935,America/Edmonton,-7,Etc/GMT+7
05BM018,WEST ARROWWOOD CREEK NEAR ENSIGN,AB,ACTIVE,TRUE,50.51377,-113.34436,America/Edmonton,-7,Etc/GMT+7
05BM020,EASTERN IRRIGATION DISTRICT MAIN BRANCH CANAL NEAR HEADGATE,AB,ACTIVE,TRUE,50.74583,-112.51667,America/Edmonton,-7,Etc/GMT+7
05BM021,BOW RIVER DEVELOPMENT MAIN CANAL BELOW HEADGATES,AB,ACTIVE,TRUE,50.82596,-113.4313,America/Edmonton,-7,Etc/GMT+7
05BN002,TWELVE MILE CREEK NEAR CECIL,AB,ACTIVE,TRUE,50.14938,-111.66543,America/Edmonton,-7,Etc/GMT+7
05BN006,NEW WEST COULEE NEAR THE MOUTH,AB,ACTIVE,TRUE,50.21665,-112.10495,America/Edmonton,-7,Etc/GMT+7
05BN008,BOW RIVER DEVELOPMENT DRAIN D NEAR VAUXHALL,AB,ACTIVE,TRUE,50.1954,-112.04756,America/Edmonton,-7,Etc/GMT+7
05BN012,BOW RIVER NEAR THE MOUTH,AB,ACTIVE,TRUE,50.04728,-111.59092,America/Edmonton,-7,Etc/GMT+7
05CA002,JAMES RIVER NEAR SUNDRE,AB,ACTIVE,TRUE,51.92679,-114.68552,America/Edmonton,-7,Etc/GMT+7
05CA004,RED DEER RIVER ABOVE PANTHER RIVER,AB,ACTIVE,TRUE,51.66051,-115.41056,America/Edmonton,-7,Etc/GMT+7
05CA009,RED DEER RIVER BELOW BURNT TIMBER CREEK,AB,ACTIVE,TRUE,51.64625,-115.01925,America/Edmonton,-7,Etc/GMT+7
05CA011,BEARBERRY CREEK NEAR SUNDRE,AB,ACTIVE,TRUE,51.80208,-114.66315,America/Edmonton,-7,Etc/GMT+7
05CA012,FALLENTIMBER CREEK NEAR SUNDRE,AB,ACTIVE,TRUE,51.73671,-114.6545,America/Edmonton,-7,Etc/GMT+7
05CB001,LITTLE RED DEER RIVER NEAR THE MOUTH,AB,ACTIVE,TRUE,52.02824,-114.14029,America/Edmonton,-7,Etc/GMT+7
05CB002,LITTLE RED DEER RIVER NEAR WATER VALLEY,AB,ACTIVE,TRUE,51.51147,-114.67097,America/Edmonton,-7,Etc/GMT+7
05CB004,RAVEN RIVER NEAR RAVEN,AB,ACTIVE,TRUE,52.08928,-114.47748,America/Edmonton,-7,Etc/GMT+7
05CB006,GLENIFFER RESERVOIR NEAR DICKSON,AB,ACTIVE,TRUE,52.04644,-114.22881,America/Edmonton,-7,Etc/GMT+7
05CB007,DICKSON DAM TUNNEL OUTLET,AB,ACTIVE,TRUE,52.05835,-114.21858,America/Edmonton,-7,Etc/GMT+7
05CC001,BLINDMAN RIVER NEAR BLACKFALDS,AB,ACTIVE,TRUE,52.35402,-113.79472,America/Edmonton,-7,Etc/GMT+7
05CC002,RED DEER RIVER AT RED DEER,AB,ACTIVE,TRUE,52.27636,-113.81726,America/Edmonton,-7,Etc/GMT+7
05CC003,SYLVAN LAKE AT SYLVAN LAKE,AB,ACTIVE,TRUE,52.31137,-114.10332,America/Edmonton,-7,Etc/GMT+7
05CC006,GULL LAKE AT RV HEAVEN MARINA,AB,ACTIVE,TRUE,52.6108,-114.05544,America/Edmonton,-7,Etc/GMT+7
05CC007,MEDICINE RIVER NEAR ECKVILLE,AB,ACTIVE,TRUE,52.31956,-114.34417,America/Edmonton,-7,Etc/GMT+7
05CC008,BLINDMAN RIVER NEAR BLUFFTON,AB,ACTIVE,TRUE,52.7563,-114.28556,America/Edmonton,-7,Etc/GMT+7
05CC010,BLOCK CREEK NEAR LEEDALE,AB,ACTIVE,TRUE,52.57374,-114.57767,America/Edmonton,-7,Etc/GMT+7
05CC011,WASKASOO CREEK AT RED DEER,AB,ACTIVE,TRUE,52.26849,-113.79985,America/Edmonton,-7,Etc/GMT+7
05CC013,LASTHILL CREEK NEAR ECKVILLE,AB,ACTIVE,TRUE,52.36177,-114.45773,America/Edmonton,-7,Etc/GMT+7
05CD005,BUFFALO LAKE NEAR ERSKINE,AB,ACTIVE,TRUE,52.46307,-112.88212,America/Edmonton,-7,Etc/GMT+7
05CD006,HAYNES CREEK NEAR HAYNES,AB,ACTIVE,TRUE,52.33191,-113.36296,America/Edmonton,-7,Etc/GMT+7
05CD007,PARLBY CREEK AT ALIX,AB,ACTIVE,TRUE,52.407470000000004,-113.19576,America/Edmonton,-7,Etc/GMT+7
05CE001,RED DEER RIVER AT DRUMHELLER,AB,ACTIVE,TRUE,51.46727,-112.71149,America/Edmonton,-7,Etc/GMT+7
05CE002,KNEEHILLS CREEK NEAR DRUMHELLER,AB,ACTIVE,TRUE,51.46946,-112.97827,America/Edmonton,-7,Etc/GMT+7
05CE005,ROSEBUD RIVER AT REDLAND,AB,ACTIVE,TRUE,51.29354,-113.0113,America/Edmonton,-7,Etc/GMT+7
05CE006,ROSEBUD RIVER BELOW CARSTAIRS CREEK,AB,ACTIVE,TRUE,51.41583,-113.72778,America/Edmonton,-7,Etc/GMT+7
05CE007,THREEHILLS CREEK NEAR CARBON,AB,ACTIVE,TRUE,51.56446,-113.07342,America/Edmonton,-7,Etc/GMT+7
05CE010,RAY CREEK NEAR INNISFAIL,AB,ACTIVE,TRUE,52.00117,-113.59972,America/Edmonton,-7,Etc/GMT+7
05CE011,RENWICK CREEK NEAR THREE HILLS,AB,ACTIVE,TRUE,51.71784,-113.36112,America/Edmonton,-7,Etc/GMT+7
05CE012,GHOSTPINE CREEK NEAR HUXLEY,AB,ACTIVE,TRUE,51.89591,-113.24107,America/Edmonton,-7,Etc/GMT+7
05CE018,THREEHILLS CREEK BELOW RAY CREEK,AB,ACTIVE,TRUE,51.99747,-113.56856,America/Edmonton,-7,Etc/GMT+7
05CE020,MICHICHI CREEK AT DRUMHELLER,AB,ACTIVE,TRUE,51.47153,-112.71699,America/Edmonton,-7,Etc/GMT+7
05CG004,BULLPOUND CREEK NEAR WATTS,AB,ACTIVE,TRUE,51.66211,-112.08397,America/Edmonton,-7,Etc/GMT+7
05CG006,FISH CREEK ABOVE LITTLE FISH LAKE,AB,ACTIVE,TRUE,51.3908,-112.20187,America/Edmonton,-7,Etc/GMT+7
05CH007,BERRY CREEK NEAR THE MOUTH,AB,ACTIVE,TRUE,50.85509,-111.59061,America/Edmonton,-7,Etc/GMT+7
05CH008,BERRY CREEK NEAR ROSE LYNN,AB,ACTIVE,TRUE,51.41616,-111.49633,America/Edmonton,-7,Etc/GMT+7
05CH011,BERRY CREEK RESERVOIR OUTLET,AB,ACTIVE,TRUE,51.23974,-111.63142,America/Edmonton,-7,Etc/GMT+7
05CH013,FORSTER RESERVOIR NEAR CESSFORD,AB,ACTIVE,TRUE,50.98086,-111.76747,America/Edmonton,-7,Etc/GMT+7
05CH014,BERRY CREEK RESERVOIR NEAR SUNNYNOOK,AB,ACTIVE,TRUE,51.25521,-111.64056,America/Edmonton,-7,Etc/GMT+7
05CJ006,ONETREE CREEK NEAR PATRICIA,AB,ACTIVE,TRUE,50.73393,-111.68934,America/Edmonton,-7,Etc/GMT+7
05CJ012,MATZHIWIN CREEK BELOW WARE COULEE,AB,ACTIVE,TRUE,50.82091,-111.82876,America/Edmonton,-7,Etc/GMT+7
05CK001,BLOOD INDIAN CREEK NEAR THE MOUTH,AB,ACTIVE,TRUE,50.9583,-111.06004,America/Edmonton,-7,Etc/GMT+7
05CK004,RED DEER RIVER NEAR BINDLOSS,AB,ACTIVE,TRUE,50.90278,-110.29953,America/Edmonton,-7,Etc/GMT+7
05CK005,ALKALI CREEK NEAR THE MOUTH,AB,ACTIVE,TRUE,50.89896,-110.508,America/Edmonton,-7,Etc/GMT+7
05CK006,KENNEDY COULEE NEAR ACADIA VALLEY,AB,ACTIVE,TRUE,51.09586,-110.25898,America/Edmonton,-7,Etc/GMT+7
05DA007,MISTAYA RIVER NEAR SASKATCHEWAN CROSSING,AB,ACTIVE,TRUE,51.88427,-116.68919,America/Edmonton,-7,Etc/GMT+7
05DA009,NORTH SASKATCHEWAN RIVER AT WHIRLPOOL POINT,AB,ACTIVE,TRUE,52.00119,-116.47093,America/Edmonton,-7,Etc/GMT+7
05DB002,PRAIRIE CREEK NEAR ROCKY MOUNTAIN HOUSE,AB,ACTIVE,TRUE,52.27386,-114.92918,America/Edmonton,-7,Etc/GMT+7
05DB006,CLEARWATER RIVER NEAR DOVERCOURT,AB,ACTIVE,TRUE,52.2521,-114.85582,America/Edmonton,-7,Etc/GMT+7
05DC001,NORTH SASKATCHEWAN RIVER NEAR ROCKY MOUNTAIN HOUSE,AB,ACTIVE,TRUE,52.3767,-114.94132,America/Edmonton,-7,Etc/GMT+7
05DC011,NORTH RAM RIVER AT FORESTRY ROAD,AB,ACTIVE,TRUE,52.28296,-115.99929,America/Edmonton,-7,Etc/GMT+7
05DD004,BROWN CREEK AT FORESTRY ROAD,AB,ACTIVE,TRUE,52.76396,-116.36081,America/Edmonton,-7,Etc/GMT+7
05DD007,BRAZEAU RIVER BELOW CARDINAL RIVER,AB,ACTIVE,TRUE,52.88158,-116.55625,America/Edmonton,-7,Etc/GMT+7
05DD009,NORDEGG RIVER AT SUNCHILD ROAD,AB,ACTIVE,TRUE,52.81997,-115.52026,America/Edmonton,-7,Etc/GMT+7
05DE002,WABAMUN LAKE AT WABAMUN,AB,ACTIVE,TRUE,53.55583,-114.46914,America/Edmonton,-7,Etc/GMT+7
05DE006,NORTH SASKATCHEWAN RIVER NEAR LODGEPOLE,AB,ACTIVE,TRUE,53.05246,-115.21118,America/Edmonton,-7,Etc/GMT+7
05DE007,ROSE CREEK NEAR ALDER FLATS,AB,ACTIVE,TRUE,52.92991,-115.01102,America/Edmonton,-7,Etc/GMT+7
05DE009,TOMAHAWK CREEK NEAR TOMAHAWK,AB,ACTIVE,TRUE,53.40585,-114.76311,America/Edmonton,-7,Etc/GMT+7
05DE010,NORTH SASKATCHEWAN RIVER AT HIGHWAY NO. 759,AB,ACTIVE,TRUE,53.31548,-114.75796,America/Edmonton,-7,Etc/GMT+7
05DF001,NORTH SASKATCHEWAN RIVER AT EDMONTON,AB,ACTIVE,TRUE,53.53721,-113.4855,America/Edmonton,-7,Etc/GMT+7
05DF003,BLACKMUD CREEK NEAR ELLERSLIE,AB,ACTIVE,TRUE,53.41455,-113.51651,America/Edmonton,-7,Etc/GMT+7
05DF004,STRAWBERRY CREEK NEAR THE MOUTH,AB,ACTIVE,TRUE,53.31149,-114.05207,America/Edmonton,-7,Etc/GMT+7
05DF006,WHITEMUD CREEK NEAR ELLERSLIE,AB,ACTIVE,TRUE,53.41263,-113.59089,America/Edmonton,-7,Etc/GMT+7
05DF008,WEED CREEK AT THORSBY,AB,ACTIVE,TRUE,53.23379,-114.0508,America/Edmonton,-7,Etc/GMT+7
05DF009,WHITEMUD CREEK AT EDMONTON,AB,ACTIVE,TRUE,53.48302,-113.55455,America/Edmonton,-7,Etc/GMT+7
05EA001,STURGEON RIVER NEAR FORT SASKATCHEWAN,AB,ACTIVE,TRUE,53.83276,-113.28236,America/Edmonton,-7,Etc/GMT+7
05EA002,STURGEON RIVER AT ST. ALBERT,AB,ACTIVE,TRUE,53.63583,-113.62722,America/Edmonton,-7,Etc/GMT+7
05EA005,STURGEON RIVER NEAR VILLENEUVE,AB,ACTIVE,TRUE,53.65535,-113.76247,America/Edmonton,-7,Etc/GMT+7
05EA006,LAC STE. ANNE AT ALBERTA BEACH,AB,ACTIVE,TRUE,53.67639,-114.3575,America/Edmonton,-7,Etc/GMT+7
05EA008,ISLE LAKE AT EUREKA BEACH,AB,ACTIVE,TRUE,53.62597,-114.68638,America/Edmonton,-7,Etc/GMT+7
05EA010,STURGEON RIVER NEAR MAGNOLIA BRIDGE,AB,ACTIVE,TRUE,53.59139,-114.85972,America/Edmonton,-7,Etc/GMT+7
05EA011,CARROT CREEK NEAR THE MOUTH,AB,ACTIVE,TRUE,53.62339,-113.69531,America/Edmonton,-7,Etc/GMT+7
05EA012,ATIM CREEK AT CENTURY ROAD,AB,ACTIVE,TRUE,53.59028,-113.88536,America/Edmonton,-7,Etc/GMT+7
05EA013,KILINI CREEK AT TWP ROAD NO 543,AB,ACTIVE,TRUE,53.67213,-114.1355,America/Edmonton,-7,Etc/GMT+7
05EC005,REDWATER RIVER NEAR THE MOUTH,AB,ACTIVE,TRUE,53.8966,-112.99602,America/Edmonton,-7,Etc/GMT+7
05EE005,STRETTON CREEK NEAR MARWAYNE,AB,ACTIVE,TRUE,53.44246,-110.32566,America/Edmonton,-7,Etc/GMT+7
05EE006,VERMILION RIVER TRIBUTARY NEAR BRUCE,AB,ACTIVE,TRUE,53.29409,-112.04985,America/Edmonton,-7,Etc/GMT+7
05EE007,VERMILION RIVER NEAR MARWAYNE,AB,ACTIVE,TRUE,53.49162,-110.3988,America/Edmonton,-7,Etc/GMT+7
05EE008,VERMILION PARK LAKE NEAR VERMILION,AB,ACTIVE,TRUE,53.36117,-110.86056,America/Edmonton,-7,Etc/GMT+7
05EE009,VERMILION RIVER AT VEGREVILLE,AB,ACTIVE,TRUE,53.49118,-112.0398,America/Edmonton,-7,Etc/GMT+7
05EE010,VERMILION RIVER AT RANGE ROAD NO. 105,AB,ACTIVE,TRUE,53.61928,-111.45168,America/Edmonton,-7,Etc/GMT+7
05EE011,VERMILION LAKES NEAR MORECAMBE,AB,ACTIVE,TRUE,53.64189,-111.47577,America/Edmonton,-7,Etc/GMT+7
05EF001,NORTH SASKATCHEWAN RIVER NEAR DEER CREEK,SK,ACTIVE,TRUE,53.52319,-109.61789,America/Regina,-6,Etc/GMT+6
05FA001,BATTLE RIVER NEAR PONOKA,AB,ACTIVE,TRUE,52.66325,-113.58141,America/Edmonton,-7,Etc/GMT+7
05FA011,BATTLE RIVER AT DUHAMEL,AB,ACTIVE,TRUE,52.94859,-112.96467,America/Edmonton,-7,Etc/GMT+7
05FA013,PIGEON LAKE AT PIGEON LAKE PROVINCIAL PARK,AB,ACTIVE,TRUE,53.02378,-114.1265,America/Edmonton,-7,Etc/GMT+7
05FA014,MASKWA CREEK NO. 1 ABOVE BEARHILLS LAKE,AB,ACTIVE,TRUE,52.78509,-113.62909,America/Edmonton,-7,Etc/GMT+7
05FA016,COAL LAKE RESERVOIR NEAR WETASKIWIN,AB,ACTIVE,TRUE,53.0031,-113.21913,America/Edmonton,-7,Etc/GMT+7
05FA024,WEILLER CREEK NEAR WETASKIWIN,AB,ACTIVE,TRUE,52.95916,-113.27995,America/Edmonton,-7,Etc/GMT+7
05FA025,CAMROSE CREEK NEAR CAMROSE,AB,ACTIVE,TRUE,53.04147,-112.82995,America/Edmonton,-7,Etc/GMT+7
05FC001,BATTLE RIVER NEAR FORESTBURG,AB,ACTIVE,TRUE,52.57406,-112.34165,America/Edmonton,-7,Etc/GMT+7
05FC004,PAINTEARTH CREEK NEAR HALKIRK,AB,ACTIVE,TRUE,52.38555,-112.13808,America/Edmonton,-7,Etc/GMT+7
05FC007,YOUNG CREEK NEAR CASTOR,AB,ACTIVE,TRUE,52.25919,-111.7301,America/Edmonton,-7,Etc/GMT+7
05FC008,BATTLE RIVER AT HIGHWAY NO. 872,AB,ACTIVE,TRUE,52.40182,-111.41142,America/Edmonton,-7,Etc/GMT+7
05FD007,SHORNCLIFFE LAKE NEAR CZAR,AB,ACTIVE,TRUE,52.47236,-110.86361,America/Edmonton,-7,Etc/GMT+7
05FE002,BUFFALO CREEK AT HIGHWAY NO. 41,AB,ACTIVE,TRUE,53.00723,-110.86734,America/Edmonton,-7,Etc/GMT+7
05FE004,BATTLE RIVER NEAR THE SASKATCHEWAN BOUNDARY,AB,ACTIVE,TRUE,52.85644,-110.01934,America/Edmonton,-7,Etc/GMT+7
05GA003,MONITOR CREEK NEAR MONITOR,AB,ACTIVE,TRUE,51.96955,-110.57635,America/Edmonton,-7,Etc/GMT+7
05GA008,SOUNDING CREEK NEAR OYEN,AB,ACTIVE,TRUE,51.56666,-110.4736,America/Edmonton,-7,Etc/GMT+7
05GA012,SOUNDING CREEK NEAR CHINOOK,AB,ACTIVE,TRUE,51.54768,-110.91978,America/Edmonton,-7,Etc/GMT+7
05GG001,NORTH SASKATCHEWAN RIVER AT PRINCE ALBERT,SK,ACTIVE,TRUE,53.20344,-105.77214,America/Regina,-6,Etc/GMT+6
05HA003,BEAR CREEK NEAR PIAPOT,SK,ACTIVE,TRUE,49.89947,-109.10628,America/Regina,-6,Etc/GMT+6
05HC005,ANTELOPE CREEK NEAR CABRI,SK,ACTIVE,TRUE,50.66197,-108.3815,America/Regina,-6,Etc/GMT+6
05HD036,SWIFT CURRENT CREEK BELOW ROCK CREEK,SK,ACTIVE,TRUE,49.84444,-108.47944,America/Regina,-6,Etc/GMT+6
05HD039,SWIFT CURRENT CREEK NEAR LEINAN,SK,ACTIVE,TRUE,50.49389,-107.65861,America/Regina,-6,Etc/GMT+6
05HD042,ILLERBRUN CREEK NEAR SIMMIE,SK,ACTIVE,TRUE,49.93192,-108.25897,America/Regina,-6,Etc/GMT+6
05HG001,SOUTH SASKATCHEWAN RIVER AT SASKATOON,SK,ACTIVE,TRUE,52.14067,-106.64431,America/Regina,-6,Etc/GMT+6
05HG002,BRIGHTWATER CREEK NEAR KENASTON,SK,ACTIVE,TRUE,51.56231,-106.50083,America/Regina,-6,Etc/GMT+6
05HG021,INVERNESS CREEK NEAR BRODERICK,SK,ACTIVE,TRUE,51.50408,-106.82089,America/Regina,-6,Etc/GMT+6
05JA002,WOOD RIVER NEAR LAFLECHE,SK,ACTIVE,TRUE,49.66861,-106.69417,America/Regina,-6,Etc/GMT+6
05JA003,MCDONALD CREEK NEAR MCCORD,SK,ACTIVE,TRUE,49.43778,-106.83583,America/Regina,-6,Etc/GMT+6
05JA005,WOOD RIVER NEAR MCCORD,SK,ACTIVE,TRUE,49.49478,-106.78678,America/Regina,-6,Etc/GMT+6
05JA006,SIX MILE CREEK NEAR GLENTWORTH,SK,ACTIVE,TRUE,49.49603,-106.75489,America/Regina,-6,Etc/GMT+6
05JB001,NOTUKEU CREEK NEAR VANGUARD,SK,ACTIVE,TRUE,49.91747,-107.18633,America/Regina,-6,Etc/GMT+6
05JB004,NOTUKEU CREEK ABOVE ADMIRAL RESERVOIR,SK,ACTIVE,TRUE,49.70889,-108.12528,America/Regina,-6,Etc/GMT+6
05JB007,MOSQUITO CREEK NEAR PAMBRUN,SK,ACTIVE,TRUE,49.97714,-107.43658,America/Regina,-6,Etc/GMT+6
05JC004,RUSHLAKE CREEK ABOVE HIGHFIELD RESERVOIR,SK,ACTIVE,TRUE,50.25306,-107.46972,America/Regina,-6,Etc/GMT+6
05JE006,MOOSE JAW RIVER NEAR BURDICK,SK,ACTIVE,TRUE,50.40033,-105.39786,America/Regina,-6,Etc/GMT+6
05JF001,QU'APPELLE RIVER NEAR LUMSDEN,SK,ACTIVE,TRUE,50.65047,-104.86678,America/Regina,-6,Etc/GMT+6
05JF005,WASCANA CREEK NEAR LUMSDEN,SK,ACTIVE,TRUE,50.63556,-104.90978,America/Regina,-6,Etc/GMT+6
05JF006,BOGGY CREEK NEAR LUMSDEN,SK,ACTIVE,TRUE,50.58472,-104.81803,America/Regina,-6,Etc/GMT+6
05JF008,FAHLMAN CREEK NEAR DAVIN,SK,ACTIVE,TRUE,50.36883,-104.19228,America/Regina,-6,Etc/GMT+6
05JF011,COTTONWOOD CREEK NEAR LUMSDEN,SK,ACTIVE,TRUE,50.59056,-104.90861,America/Regina,-6,Etc/GMT+6
05JG004,QU'APPELLE RIVER ABOVE BUFFALO POUND LAKE,SK,ACTIVE,TRUE,50.78333,-105.84014,America/Regina,-6,Etc/GMT+6
05JG006,ELBOW DIVERSION CANAL AT DROP STRUCTURE,SK,ACTIVE,TRUE,50.97864,-106.39847,America/Regina,-6,Etc/GMT+6
05JG013,RIDGE CREEK NEAR BRIDGEFORD,SK,ACTIVE,TRUE,50.95133,-106.3295,America/Regina,-6,Etc/GMT+6
05JH004,LAST MOUNTAIN LAKE AT ROWAN'S RAVINE,SK,ACTIVE,TRUE,50.99564,-105.18386,America/Regina,-6,Etc/GMT+6
05JJ003,LANIGAN CREEK ABOVE BOULDER LAKE,SK,ACTIVE,TRUE,51.64986,-105.23811,America/Regina,-6,Etc/GMT+6
05JJ009,SALINE CREEK NEAR NOKOMIS,SK,ACTIVE,TRUE,51.41611,-105.10306,America/Regina,-6,Etc/GMT+6
05JK002,QU'APPELLE RIVER BELOW CRAVEN DAM,SK,ACTIVE,TRUE,50.70653,-104.79792,America/Regina,-6,Etc/GMT+6
05JK004,JUMPING DEER CREEK NEAR LIPTON,SK,ACTIVE,TRUE,50.91597,-103.90156,America/Regina,-6,Etc/GMT+6
05JK007,QU'APPELLE RIVER BELOW LOON CREEK,SK,ACTIVE,TRUE,50.78781,-104.28272,America/Regina,-6,Etc/GMT+6
05JL005,PHEASANT CREEK NEAR ABERNETHY,SK,ACTIVE,TRUE,50.73417,-103.328,America/Regina,-6,Etc/GMT+6
05JM001,QU'APPELLE RIVER NEAR WELBY,SK,ACTIVE,TRUE,50.49128,-101.55856,America/Regina,-6,Etc/GMT+6
05JM010,EKAPO CREEK NEAR MARIEVAL,SK,ACTIVE,TRUE,50.53139,-102.71006,America/Regina,-6,Etc/GMT+6
05JM015,CUTARM CREEK NEAR SPY HILL,SK,ACTIVE,TRUE,50.59042,-101.74286,America/Regina,-6,Etc/GMT+6
05KD003,SASKATCHEWAN RIVER BELOW TOBIN LAKE,SK,ACTIVE,TRUE,53.70714,-103.29872,America/Regina,-6,Etc/GMT+6
05KD004,TOBIN LAKE AT THE SPILLWAY,SK,ACTIVE,TRUE,53.65719,-103.39561,America/Regina,-6,Etc/GMT+6
05KD007,SASKATCHEWAN RIVER BELOW THE FORKS,SK,ACTIVE,TRUE,53.24611,-105.06833,America/Regina,-6,Etc/GMT+6
05KE010,WHITE GULL CREEK AT HIGHWAY NO. 106,SK,ACTIVE,TRUE,53.86497,-104.61964,America/Regina,-6,Etc/GMT+6
05KH007,CARROT RIVER NEAR TURNBERRY,SK,ACTIVE,TRUE,53.61369,-102.10378,America/Regina,-6,Etc/GMT+6
05KH015,CARROT RIVER NEAR THE PAS,MB,ACTIVE,TRUE,53.806,-101.37486,America/Winnipeg,-6,Etc/GMT+6
05KJ001,SASKATCHEWAN RIVER AT THE PAS,MB,ACTIVE,TRUE,53.83806,-101.20872,America/Winnipeg,-6,Etc/GMT+6
05KK002,CORMORANT LAKE AT CORMORANT,MB,ACTIVE,TRUE,54.2256,-100.60483,America/Winnipeg,-6,Etc/GMT+6
05KK005,NORTH MOOSE LAKE AT MOOSE LAKE NARROWS CONTROL STRUCTURE,MB,ACTIVE,TRUE,53.93829,-100.14667,America/Winnipeg,-6,Etc/GMT+6
05KK006,SOUTH MOOSE LAKE AT MOOSE LAKE NARROWS CONTROL STRUCTURE,MB,ACTIVE,TRUE,53.9382,-100.1458,America/Winnipeg,-6,Etc/GMT+6
05KL005,CEDAR LAKE NEAR OLESON POINT,MB,ACTIVE,TRUE,53.31956,-100.27944,America/Winnipeg,-6,Etc/GMT+6
05LC001,RED DEER RIVER NEAR ERWOOD,SK,ACTIVE,TRUE,52.85947,-102.19506,America/Regina,-6,Etc/GMT+6
05LC004,RED DEER RIVER NEAR THE MOUTH,MB,ACTIVE,TRUE,52.87628,-101.04939,America/Winnipeg,-6,Etc/GMT+6
05LD001,OVERFLOWING RIVER AT OVERFLOWING RIVER,MB,ACTIVE,TRUE,53.14294,-101.1025,America/Winnipeg,-6,Etc/GMT+6
